[
{"latitud": "23.251321786194655", "city": "Hoteles en Mazatlan", "name": "Best Western Posada Freeman Zona Dorada", "price": ["1", "255"], "source": "despegar", "link": "http://www.despegar.com.mx/hoteles/h-306061/best-western-posada-freeman-zona-dorada-mazatlan?totalHotels=57&pageNbr=1&cl=20&rid=4948", "address": "Ubicaci\u00f3n: Av Camar\u00f3n S\u00e1balo 777, 82110 Mazatlan, Sinaloa, M\u00e9xico", "date": "2016-08-03 18:28:15", "longitud": "-106.455580673610710"},
{"latitud": "23.118723000000000", "city": "Hoteles en Mazatlan", "name": "Estrella Del Mar Resort Mazatlan", "price": ["1", "386"], "source": "despegar", "link": "http://www.despegar.com.mx/hoteles/h-345205/estrella-del-mar-resort-mazatlan-mazatlan?totalHotels=57&pageNbr=1&cl=19&rid=4948", "address": "Ubicaci\u00f3n: Dom. Conicido Km. 10 Camino Isla de Piedra Campo de Golf Estrella del Mar", "date": "2016-08-03 18:28:15", "longitud": "-106.315738000000010"},
{"latitud": "23.288554359082127", "city": "Hoteles en Mazatlan", "name": "Ocean Breeze Mazatlan", "price": ["1", "739"], "source": "despegar", "link": "http://www.despegar.com.mx/hoteles/h-305862/ocean-breeze-mazatlan-mazatlan?totalHotels=57&pageNbr=1&cl=18&rid=4948", "address": "Ubicaci\u00f3n: Sabalos Cerritos, Zona Hotelera Norte, 82100 Mazatlan, M\u00e9xico", "date": "2016-08-03 18:28:16", "longitud": "-106.474152824745150"},
{"latitud": "23.296765770935533", "city": "Hoteles en Mazatlan", "name": "Sleep Inn Mazatl\u00e1n", "price": ["612"], "source": "despegar", "link": "http://www.despegar.com.mx/hoteles/h-897950/sleep-inn-mazatlan-mazatlan?totalHotels=57&pageNbr=1&cl=17&rid=4948", "address": "Ubicaci\u00f3n: Paseo del Pac\u00edfico 3407", "date": "2016-08-03 18:28:16", "longitud": "-106.4333392296387"},
{"latitud": "20.631198695624626", "city": "Hoteles en Playa del Carmen", "name": "Aldea Thai Luxury Condohotel", "price": ["1", "983"], "source": "despegar", "link": "http://www.despegar.com.mx/hoteles/h-214864/aldea-thai-luxury-condohotel-playa+del+carmen?totalHotels=435&pageNbr=1&cl=19&rid=5584", "address": "Ubicaci\u00f3n: Calle 28 entre Calle 26 y", "date": "2016-08-03 18:28:18", "longitud": "-87.06655722949984"},
{"latitud": "23.26738", "city": "Hoteles en Mazatlan", "name": "El Cid Marina Beach Hotel", "price": ["1", "542"], "source": "despegar", "link": "http://www.despegar.com.mx/hoteles/h-305808/el-cid-marina-beach-hotel-mazatlan?totalHotels=57&pageNbr=1&cl=15&rid=4948", "address": "Ubicaci\u00f3n: Av Camaron Sabalo S/N Zona Dorada", "date": "2016-08-03 18:28:18", "longitud": "-106.46323000000001"},
{"latitud": "23.198200000000000", "city": "Hoteles en Mazatlan", "name": "The Melville Boutique Hotel", "price": ["748"], "source": "despegar", "link": "http://www.despegar.com.mx/hoteles/h-306183/the-melville-boutique-hotel-mazatlan?totalHotels=57&pageNbr=1&cl=16&rid=4948", "address": "Ubicaci\u00f3n: Constituci\u00f3n 99, 82000 Mazatl\u00e1n", "date": "2016-08-03 18:28:18", "longitud": "-106.424600000000000"},
{"latitud": "20.620165781596423", "city": "Hoteles en Playa del Carmen", "name": "Playacar Palace", "price": ["6", "546"], "source": "despegar", "link": "http://www.despegar.com.mx/hoteles/h-214176/playacar-palace-playa+del+carmen?totalHotels=435&pageNbr=1&cl=20&rid=5584", "address": "Ubicaci\u00f3n: Bahia del Esp\u00edritu Santo esq. Abraira de Arriba", "date": "2016-08-03 18:28:18", "longitud": "-87.076578674781500"},
{"latitud": "20.630880000000000", "city": "Hoteles en Playa del Carmen", "name": "Reina Roja Hotel", "price": ["1", "319"], "source": "despegar", "link": "http://www.despegar.com.mx/hoteles/h-255321/reina-roja-hotel-playa+del+carmen?totalHotels=435&pageNbr=1&cl=18&rid=5584", "address": "Ubicaci\u00f3n: Calle 20 entre avenida 10 y 5a. 298, Centro, 77710 Playa del Carmen, Quintana Roo, M\u00e9xico", "date": "2016-08-03 18:28:18", "longitud": "-87.069959999999980"},
{"latitud": "20.640010000000000", "city": "Hoteles en Puerto Vallarta", "name": "Villas del Sol in Los Tules", "price": ["1", "021"], "source": "despegar", "link": "http://www.despegar.com.mx/hoteles/h-314158/villas-del-sol-in-los-tules-puerto+vallarta?totalHotels=124&pageNbr=1&cl=20&rid=5991", "address": "Ubicaci\u00f3n: Boulevard Francisco Medina Ascencio Km", "date": "2016-08-03 18:28:18", "longitud": "-105.234739999999990"},
{"latitud": "20.871610345967753", "city": "Hoteles en Riviera Maya", "name": "Secrets Silversands Riviera Cancun", "price": ["3", "916"], "source": "despegar", "link": "http://www.despegar.com.mx/hoteles/h-265183/secrets-silversands-riviera-cancun-riviera+maya?totalHotels=113&pageNbr=1&cl=20&rid=8934", "address": "Ubicaci\u00f3n: Bahia Petempich Sm12 Mz 31, Lote 14-02", "date": "2016-08-03 18:28:18", "longitud": "-86.866644519168060"},
{"latitud": "20.67023096649345", "city": "Hoteles en Riviera Maya", "name": "Grand Riviera Princess All Suites Resort & Spa", "price": ["3", "146"], "source": "despegar", "link": "http://www.despegar.com.mx/hoteles/h-214749/grand-riviera-princess-all-suites-resort-y-spa-riviera+maya?totalHotels=113&pageNbr=1&cl=19&rid=8934", "address": "Ubicaci\u00f3n: PROLONGACION 5TA AVENIDA MZA 20 LOTE 006", "date": "2016-08-03 18:28:19", "longitud": "-87.03059401445313"},
{"latitud": "20.672840000000000", "city": "Hoteles en Guadalajara", "name": "Morales Historical & Colonial Downtown Core", "price": ["727"], "source": "despegar", "link": "http://www.despegar.com.mx/hoteles/h-200321/morales-historical-y-colonial-downtown-core-guadalajara?totalHotels=141&pageNbr=1&cl=20&rid=2442", "address": "Ubicaci\u00f3n: Ave Corona 243 Centro", "date": "2016-08-03 18:28:19", "longitud": "-103.346310000000020"},
{"latitud": "20.75906649185252", "city": "Hoteles en Riviera Maya", "name": "Senses Riviera Maya By Artisan Adults Only", "price": ["2", "258"], "source": "despegar", "link": "http://www.despegar.com.mx/hoteles/h-713323/senses-riviera-maya-by-artisan-adults-only-riviera+maya?totalHotels=113&pageNbr=1&cl=17&rid=8934", "address": "Ubicaci\u00f3n: Carretera chetumal cancun, km 307 lote 71 y 72 fraccionamiento Playa Paraiso.", "date": "2016-08-03 18:28:19", "longitud": "-86.95723642075802"},
{"latitud": "20.687332602795475", "city": "Hoteles en Riviera Maya", "name": "Fairmont Mayakoba", "price": ["3", "408"], "source": "despegar", "link": "http://www.despegar.com.mx/hoteles/h-214766/fairmont-mayakoba-riviera+maya?totalHotels=113&pageNbr=1&cl=16&rid=8934", "address": "Ubicaci\u00f3n: CARRETERA FEDERAL CUN - PLAYA DEL C, KM 298, PLAYA DEL CARMEN, 77710", "date": "2016-08-03 18:28:19", "longitud": "-87.030097246170040"},
{"latitud": "20.679667000000000", "city": "Hoteles en Guadalajara", "name": "HG Hotel", "price": ["670"], "source": "despegar", "link": "http://www.despegar.com.mx/hoteles/h-487420/hg-hotel-guadalajara?totalHotels=141&pageNbr=1&cl=19&rid=2442", "address": "Ubicaci\u00f3n: Av. Vallarta 5281", "date": "2016-08-03 18:28:20", "longitud": "-103.425897000000020"},
{"latitud": "20.507746774072230", "city": "Hoteles en Riviera Maya", "name": "Coral Maya Turquesa Condo Hotel", "price": ["1", "262"], "source": "despegar", "link": "http://www.despegar.com.mx/hoteles/h-348596/coral-maya-turquesa-condo-hotel-riviera+maya?totalHotels=113&pageNbr=1&cl=18&rid=8934", "address": "Ubicaci\u00f3n: Bahia Kantenah 38, Puerto Aventuras, 77782 Solidaridad, Quintana Roo, M\u00e9xico", "date": "2016-08-03 18:28:20", "longitud": "-87.213420867919920"},
{"latitud": "20.673995606212177", "city": "Hoteles en Riviera Maya", "name": "Grand Velas All Suites & Spa Riviera Maya All Inclusive", "price": ["11", "176"], "source": "despegar", "link": "http://www.despegar.com.mx/hoteles/h-214132/grand-velas-all-suites-y-spa-riviera-maya-all-inclusive-riviera+maya?totalHotels=113&pageNbr=1&cl=15&rid=8934", "address": "Ubicaci\u00f3n: Carretera Cancun-Tulum Km. 62 Municipio de Solidaridad", "date": "2016-08-03 18:28:20", "longitud": "-87.023466825485230"},
{"latitud": "23.188706195314307", "city": "Hoteles en Mazatlan", "name": "Hotel Atenas", "price": ["405"], "source": "despegar", "link": "http://www.despegar.com.mx/hoteles/h-573208/hotel-atenas-mazatlan?totalHotels=57&pageNbr=2&cl=20&rid=4948", "address": "Ubicaci\u00f3n: Calle Carnaval #919, Col. Playa Sur", "date": "2016-08-03 18:28:21", "longitud": "-106.420571537820420"},
{"latitud": "23.22614050869271", "city": "Hoteles en Mazatlan", "name": "Hotel Las Jacarandas", "price": ["560"], "source": "despegar", "link": "http://www.despegar.com.mx/hoteles/h-382680/hotel-las-jacarandas-mazatlan?totalHotels=57&pageNbr=2&cl=18&rid=4948", "address": "Ubicaci\u00f3n: Avenida del Mar 2500, M\u00e9xico", "date": "2016-08-03 18:28:21", "longitud": "-106.40804745344235"},
{"latitud": "23.198121900000000", "city": "Hoteles en Mazatlan", "name": "Hotel La Siesta", "price": ["535"], "source": "despegar", "link": "http://www.despegar.com.mx/hoteles/h-305929/hotel-la-siesta-mazatlan?totalHotels=57&pageNbr=2&cl=17&rid=4948", "address": "Ubicaci\u00f3n: Blvd Olas Altas 11, Centro", "date": "2016-08-03 18:28:21", "longitud": "-106.427026000000010"},
{"latitud": "23.242229894792587", "city": "Hoteles en Mazatlan", "name": "Las Flores Beach Resort", "price": ["652"], "source": "despegar", "link": "http://www.despegar.com.mx/hoteles/h-312622/las-flores-beach-resort-mazatlan?totalHotels=57&pageNbr=2&cl=19&rid=4948", "address": "Ubicaci\u00f3n: Avenida Playa Gaviotas 212", "date": "2016-08-03 18:28:21", "longitud": "-106.453249560852040"},
{"latitud": "23.186600000000000", "city": "Hoteles en Mazatlan", "name": "Hotel Mar\u00eda Coral", "price": ["759"], "source": "despegar", "link": "http://www.despegar.com.mx/hoteles/h-370229/hotel-maria-coral-mazatlan?totalHotels=57&pageNbr=2&cl=15&rid=4948", "address": "Ubicaci\u00f3n: ISLA DE LA PIEDRA", "date": "2016-08-03 18:28:21", "longitud": "-106.401790000000000"},
{"latitud": "23.242011400000000", "city": "Hoteles en Mazatlan", "name": "Hotel Azteca Inn", "price": ["585"], "source": "despegar", "link": "http://www.despegar.com.mx/hoteles/h-306153/hotel-azteca-inn-mazatlan?totalHotels=57&pageNbr=2&cl=16&rid=4948", "address": "Ubicaci\u00f3n: Av. Playa Gaviotas No. 307", "date": "2016-08-03 18:28:21", "longitud": "-106.450396100000030"},
{"latitud": "23.28074", "city": "Hoteles en Mazatlan", "name": "Villas El Rancho", "price": ["1", "687"], "source": "despegar", "link": "http://www.despegar.com.mx/hoteles/h-305817/villas-el-rancho-mazatlan?totalHotels=57&pageNbr=2&cl=13&rid=4948", "address": "Ubicaci\u00f3n: S\u00e1balo Cerritos 3170, 82100 Mazatlan, Sinaloa, M\u00e9xico", "date": "2016-08-03 18:28:22", "longitud": "-106.46854000000002"},
{"latitud": "19.050874182282875", "city": "Hoteles en Puebla", "name": "Hotel Boutique Angelopolis and Business", "price": ["1", "020"], "source": "despegar", "link": "http://www.despegar.com.mx/hoteles/h-345058/hotel-boutique-angelopolis-and-business-puebla?totalHotels=86&pageNbr=2&cl=20&rid=5555", "address": "Ubicaci\u00f3n: 13 Poniente 2915 A Col. La Paz Puebla", "date": "2016-08-03 18:28:22", "longitud": "-98.223180294477460"},
{"latitud": "19.167049000000000", "city": "Hoteles en Puebla", "name": "Hotel Aristos Aeropuerto Puebla", "price": ["558"], "source": "despegar", "link": "http://www.despegar.com.mx/hoteles/h-214457/hotel-aristos-aeropuerto-puebla-puebla?totalHotels=86&pageNbr=2&cl=18&rid=5555", "address": "Ubicaci\u00f3n: 1112 Miguel Jeronimo Martinez - Huejotzingo", "date": "2016-08-03 18:28:23", "longitud": "-98.405209000000010"},
{"latitud": "23.233647740390470", "city": "Hoteles en Mazatlan", "name": "Coral Island Hotel & Spa", "price": ["976"], "source": "despegar", "link": "http://www.despegar.com.mx/hoteles/h-305853/coral-island-hotel-y-spa-mazatlan?totalHotels=57&pageNbr=2&cl=11&rid=4948", "address": "Ubicaci\u00f3n: Avenida del Mar #1234", "date": "2016-08-03 18:28:23", "longitud": "-106.436393965606670"},
{"latitud": "23.219590264769890", "city": "Hoteles en Mazatlan", "name": "Hotel Aguamarina", "price": ["845"], "source": "despegar", "link": "http://www.despegar.com.mx/hoteles/h-413116/hotel-aguamarina-mazatlan?totalHotels=57&pageNbr=2&cl=14&rid=4948", "address": "Ubicaci\u00f3n: DEL MAR 110", "date": "2016-08-03 18:28:23", "longitud": "-106.422270183860180"},
{"latitud": "23.27097", "city": "Hoteles en Mazatlan", "name": "Isla Mazatlan Golden Resort", "price": ["1", "625"], "source": "despegar", "link": "http://www.despegar.com.mx/hoteles/h-322834/isla-mazatlan-golden-resort-mazatlan?totalHotels=57&pageNbr=2&cl=12&rid=4948", "address": "Ubicaci\u00f3n: Paseo de La Isla, Marina Mazatlan, 82103 Mazatlan, Sinaloa, M\u00e9xico", "date": "2016-08-03 18:28:23", "longitud": "-106.45682999999997"},
{"latitud": "19.044497792630214", "city": "Hoteles en Puebla", "name": "Hotel De Talavera", "price": ["396"], "source": "despegar", "link": "http://www.despegar.com.mx/hoteles/h-546897/hotel-de-talavera-puebla?totalHotels=86&pageNbr=2&cl=16&rid=5555", "address": "Ubicaci\u00f3n: 3 Sur 105", "date": "2016-08-03 18:28:23", "longitud": "-98.20026397705078"},
{"latitud": "19.044980665628530", "city": "Hoteles en Puebla", "name": "Provincia Express Puebla", "price": ["517"], "source": "despegar", "link": "http://www.despegar.com.mx/hoteles/h-512701/provincia-express-puebla-puebla?totalHotels=86&pageNbr=2&cl=17&rid=5555", "address": "Ubicaci\u00f3n: Reforma 141, Col. Centro", "date": "2016-08-03 18:28:23", "longitud": "-98.199842764634700"},
{"latitud": "17.661244000000000", "city": "", "name": "Hotel Suites Ixtapa Plaza y Centro Comercial", "price": ["546"], "source": "despegar", "link": "http://www.despegar.com.mx/hoteles/h-485856/hotel-suites-ixtapa-plaza-y-centro-comercial-ixtapa?totalHotels=63&pageNbr=1&cl=20&rid=179324", "address": "Ubicaci\u00f3n: Boulevard Paseo Ixtapa Manzana 1, Lote 8", "date": "2016-08-03 18:28:24", "longitud": "-101.602301000000010"},
{"latitud": "36.10601279999999", "city": "Hoteles en Las Vegas", "name": "The Signature at MGM Grand", "price": ["1", "493"], "source": "despegar", "link": "http://www.despegar.com.mx/hoteles/h-269738/the-signature-at-mgm-grand-las+vegas?totalHotels=225&pageNbr=2&cl=17&rid=3944", "address": "Ubicaci\u00f3n: 145 East Harmon Avenue", "date": "2016-08-03 18:28:24", "longitud": "-115.16678089999999"},
{"latitud": "17.638976348631390", "city": "", "name": "Zihuatanejo Centro", "price": ["502"], "source": "despegar", "link": "http://www.despegar.com.mx/hoteles/h-233003/zihuatanejo-centro-zihuatanejo?totalHotels=63&pageNbr=1&cl=19&rid=179324", "address": "Ubicaci\u00f3n: AGUSTIN RAMIREZ COLONIA CENTRO 2", "date": "2016-08-03 18:28:24", "longitud": "-101.557177981482820"},
{"latitud": "17.639155551187088", "city": "", "name": "Villas Miramar", "price": ["682"], "source": "despegar", "link": "http://www.despegar.com.mx/hoteles/h-233078/villas-miramar-zihuatanejo?totalHotels=63&pageNbr=1&cl=17&rid=179324", "address": "Ubicaci\u00f3n: Adelita Lt 78 Col. La Madera", "date": "2016-08-03 18:28:24", "longitud": "-101.550756533729550"},
{"latitud": "17.632938729134388", "city": "", "name": "Catalina Beach Resort", "price": ["772"], "source": "despegar", "link": "http://www.despegar.com.mx/hoteles/h-233035/catalina-beach-resort-zihuatanejo?totalHotels=63&pageNbr=1&cl=16&rid=179324", "address": "Ubicaci\u00f3n: Playa la Ropa No. 26", "date": "2016-08-03 18:28:25", "longitud": "-101.547918319702150"},
{"latitud": "36.112830000000000", "city": "Hoteles en Las Vegas", "name": "Extended Stay America - Las Vegas - Valley View", "price": ["1", "479"], "source": "despegar", "link": "http://www.despegar.com.mx/hoteles/h-269544/extended-stay-americalas-vegasvalley-view-las+vegas?totalHotels=225&pageNbr=2&cl=16&rid=3944", "address": "Ubicaci\u00f3n: 4270 S Valley View Blvd", "date": "2016-08-03 18:28:25", "longitud": "-115.189960000000000"},
{"latitud": "17.653490000000000", "city": "", "name": "Hotel Ixzi Plus", "price": ["718"], "source": "despegar", "link": "http://www.despegar.com.mx/hoteles/h-370390/hotel-ixzi-plus-ixtapa?totalHotels=63&pageNbr=1&cl=15&rid=179324", "address": "Ubicaci\u00f3n: Paseo Golondrinas #37", "date": "2016-08-03 18:28:25", "longitud": "-101.587379000000000"},
{"latitud": "23.205419773733560", "city": "Hoteles en Mazatlan", "name": "Hotel Morales Inn", "price": ["398"], "source": "despegar", "link": "http://www.despegar.com.mx/hoteles/h-485569/hotel-morales-inn-mazatlan?totalHotels=57&pageNbr=2&cl=10&rid=4948", "address": "Ubicaci\u00f3n: Teniente Azueta 2221 Col Centro, 82000 Mazatl\u00e1n", "date": "2016-08-03 18:28:25", "longitud": "-106.420290369311540"},
{"latitud": "36.169960000000000", "city": "Hoteles en Las Vegas", "name": "Golden Nugget Hotel & Casino", "price": ["663"], "source": "despegar", "link": "http://www.despegar.com.mx/hoteles/h-429365/golden-nugget-hotel-y-casino-las+vegas?totalHotels=225&pageNbr=2&cl=18&rid=3944", "address": "Ubicaci\u00f3n: 129 E. FREMONT STREET, LAS VEGAS, NV 89101, UNITED STATES", "date": "2016-08-03 18:28:25", "longitud": "-115.144610000000000"},
{"latitud": "36.115729000000000", "city": "Hoteles en Las Vegas", "name": "Residence Inn by Marriott Las Vegas Hughes Center", "price": ["1", "564"], "source": "despegar", "link": "http://www.despegar.com.mx/hoteles/h-449353/residence-inn-by-marriott-las-vegas-hughes-center-las+vegas?totalHotels=225&pageNbr=2&cl=19&rid=3944", "address": "Ubicaci\u00f3n: 370 Hughes Center Dr", "date": "2016-08-03 18:28:25", "longitud": "-115.155530000000000"},
{"latitud": "36.124754000000000", "city": "Hoteles en Las Vegas", "name": "TI - Treasure Island Hotel and Casino", "price": ["785"], "source": "despegar", "link": "http://www.despegar.com.mx/hoteles/h-269685/titreasure-island-hotel-and-casino-las+vegas?totalHotels=225&pageNbr=2&cl=20&rid=3944", "address": "Ubicaci\u00f3n: 3300 LAS VEGAS BLVD", "date": "2016-08-03 18:28:26", "longitud": "-115.170020000000020"},
{"latitud": "17.678637331415235", "city": "", "name": "Azul Ixtapa All Inclusive Beach Resort & Convention Center", "price": ["2", "233"], "source": "despegar", "link": "http://www.despegar.com.mx/hoteles/h-233182/azul-ixtapa-all-inclusive-beach-resort-y-convention-center-ixtapa?totalHotels=63&pageNbr=1&cl=12&rid=179324", "address": "Ubicaci\u00f3n: Paseo Punta Ixtapa Lote 2, Zona Hotelera II", "date": "2016-08-03 18:28:26", "longitud": "-101.642031269836420"},
{"latitud": "17.658353000000000", "city": "", "name": "Fontan Ixtapa Beach Resort", "price": ["1", "053"], "source": "despegar", "link": "http://www.despegar.com.mx/hoteles/h-312482/fontan-ixtapa-beach-resort-ixtapa?totalHotels=63&pageNbr=1&cl=18&rid=179324", "address": "Ubicaci\u00f3n: Blvd. Paseo de Ixtapa SN C.P 40880", "date": "2016-08-03 18:28:26", "longitud": "-101.601744000000000"},
{"latitud": "17.638387472255495", "city": "", "name": "Hotel Irma", "price": ["877"], "source": "despegar", "link": "http://www.despegar.com.mx/hoteles/h-351640/hotel-irma-zihuatanejo?totalHotels=63&pageNbr=1&cl=14&rid=179324", "address": "Ubicaci\u00f3n: Adelita S/N, Playa La Madera c.p. 40880 Zihuatanejo De Azueta", "date": "2016-08-03 18:28:27", "longitud": "-101.550337146804800"},
{"latitud": "36.097300000000000", "city": "Hoteles en Las Vegas", "name": "Luxor Hotel and Casino", "price": ["555"], "source": "despegar", "link": "http://www.despegar.com.mx/hoteles/h-269312/luxor-hotel-and-casino-las+vegas?totalHotels=225&pageNbr=2&cl=15&rid=3944", "address": "Ubicaci\u00f3n: 3900 S. Las Vegas Blvd", "date": "2016-08-03 18:28:27", "longitud": "-115.174194574356110"},
{"latitud": "36.110420000000000", "city": "Hoteles en Las Vegas", "name": "Planet Hollywood Resort & Casino", "price": ["917"], "source": "despegar", "link": "http://www.despegar.com.mx/hoteles/h-269389/planet-hollywood-resort-y-casino-las+vegas?totalHotels=225&pageNbr=2&cl=13&rid=3944", "address": "Ubicaci\u00f3n: 3667 Las Vegas Boulevard South", "date": "2016-08-03 18:28:27", "longitud": "-115.171039000000000"},
{"latitud": "17.661929271905635", "city": "", "name": "Krystal Ixtapa", "price": ["1", "023"], "source": "despegar", "link": "http://www.despegar.com.mx/hoteles/h-232895/krystal-ixtapa-ixtapa?totalHotels=63&pageNbr=1&cl=13&rid=179324", "address": "Ubicaci\u00f3n: Boulevard Ixtapa SN, Lote 4 y 4 A", "date": "2016-08-03 18:28:27", "longitud": "-101.605603730163580"},
{"latitud": "36.109629000000000", "city": "Hoteles en Las Vegas", "name": "The Cosmopolitan Of Las Vegas", "price": ["1", "902"], "source": "despegar", "link": "http://www.despegar.com.mx/hoteles/h-331807/the-cosmopolitan-of-las-vegas-las+vegas?totalHotels=225&pageNbr=2&cl=11&rid=3944", "address": "Ubicaci\u00f3n: 3708 S Las Vegas Blvd", "date": "2016-08-03 18:28:27", "longitud": "-115.173160000000000"},
{"latitud": "36.101170000000000", "city": "Hoteles en Las Vegas", "name": "MGM Grand Hotel & Casino", "price": ["1", "034"], "source": "despegar", "link": "http://www.despegar.com.mx/hoteles/h-269568/mgm-grand-hotel-y-casino-las+vegas?totalHotels=225&pageNbr=2&cl=9&rid=3944", "address": "Ubicaci\u00f3n: 3799 Las Vegas Boulevard South", "date": "2016-08-03 18:28:27", "longitud": "-115.172425999999970"},
{"latitud": "36.118146000000000", "city": "Hoteles en Las Vegas", "name": "The LINQ Hotel & Casino", "price": ["673"], "source": "despegar", "link": "http://www.despegar.com.mx/hoteles/h-576494/the-linq-hotel-y-casino-las+vegas?totalHotels=225&pageNbr=2&cl=12&rid=3944", "address": "Ubicaci\u00f3n: 3535 Las Vegas Blvd South Suite 1", "date": "2016-08-03 18:28:27", "longitud": "-115.172810000000000"},
{"latitud": "36.10897", "city": "Hoteles en Las Vegas", "name": "Hard Rock Hotel & Casino", "price": ["750"], "source": "despegar", "link": "http://www.despegar.com.mx/hoteles/h-269361/hard-rock-hotel-y-casino-las+vegas?totalHotels=225&pageNbr=2&cl=7&rid=3944", "address": "Ubicaci\u00f3n: 4455 Paradise Road", "date": "2016-08-03 18:28:28", "longitud": "-115.153797"},
{"latitud": "36.098926337820835", "city": "Hoteles en Las Vegas", "name": "Excalibur Hotel Casino", "price": ["518"], "source": "despegar", "link": "http://www.despegar.com.mx/hoteles/h-431386/excalibur-hotel-casino-las+vegas?totalHotels=225&pageNbr=2&cl=8&rid=3944", "address": "Ubicaci\u00f3n: 3850 Las Vegas Boulevard South", "date": "2016-08-03 18:28:28", "longitud": "-115.175450018524200"},
{"latitud": "36.171620000000000", "city": "Hoteles en Las Vegas", "name": "Plaza Hotel and Casino - Las Vegas", "price": ["457"], "source": "despegar", "link": "http://www.despegar.com.mx/hoteles/h-269539/plaza-hotel-and-casinolas-vegas-las+vegas?totalHotels=225&pageNbr=2&cl=5&rid=3944", "address": "Ubicaci\u00f3n: 1 MAIN STREET", "date": "2016-08-03 18:28:28", "longitud": "-115.146472000000020"},
{"latitud": "36.132239000000000", "city": "Hoteles en Las Vegas", "name": "Royal Resort", "price": ["871"], "source": "despegar", "link": "http://www.despegar.com.mx/hoteles/h-270465/royal-resort-las+vegas?totalHotels=225&pageNbr=2&cl=2&rid=3944", "address": "Ubicaci\u00f3n: 99 Convention Center Drive", "date": "2016-08-03 18:28:28", "longitud": "-115.162667000000000"},
{"latitud": "36.102361167685650", "city": "Hoteles en Las Vegas", "name": "New York-New York Hotel & Casino", "price": ["879"], "source": "despegar", "link": "http://www.despegar.com.mx/hoteles/h-448323/new-yorknew-york-hotel-y-casino-las+vegas?totalHotels=225&pageNbr=2&cl=10&rid=3944", "address": "Ubicaci\u00f3n: 3790 Las Vegas Boulevard South", "date": "2016-08-03 18:28:28", "longitud": "-115.174540375671370"},
{"latitud": "36.112503359981790", "city": "Hoteles en Las Vegas", "name": "Super 8 Las Vegas Strip Area at Ellis Island Casino", "price": ["452"], "source": "despegar", "link": "http://www.despegar.com.mx/hoteles/h-269489/super-8-las-vegas-strip-area-at-ellis-island-casino-las+vegas?totalHotels=225&pageNbr=2&cl=3&rid=3944", "address": "Ubicaci\u00f3n: 4250 Koval Lane", "date": "2016-08-03 18:28:29", "longitud": "-115.163909999999990"},
{"latitud": "36.128969000000000", "city": "Hoteles en Las Vegas", "name": "Trump International Hotel Las Vegas", "price": ["1", "655"], "source": "despegar", "link": "http://www.despegar.com.mx/hoteles/h-269693/trump-international-hotel-las-vegas-las+vegas?totalHotels=225&pageNbr=2&cl=4&rid=3944", "address": "Ubicaci\u00f3n: 2000 Fashion Show Drive", "date": "2016-08-03 18:28:29", "longitud": "-115.172296000000020"},
{"latitud": "36.116568000000000", "city": "Hoteles en Las Vegas", "name": "Gold Coast Hotel and Casino", "price": ["650"], "source": "despegar", "link": "http://www.despegar.com.mx/hoteles/h-270345/gold-coast-hotel-and-casino-las+vegas?totalHotels=225&pageNbr=2&cl=14&rid=3944", "address": "Ubicaci\u00f3n: 4000 WEST FLAMINGO", "date": "2016-08-03 18:28:29", "longitud": "-115.191411000000020"},
{"latitud": "36.108200000000000", "city": "Hoteles en Las Vegas", "name": "Vdara Hotel & Spa", "price": ["1", "608"], "source": "despegar", "link": "http://www.despegar.com.mx/hoteles/h-645656/vdara-hotel-y-spa-las+vegas?totalHotels=225&pageNbr=2&cl=0&rid=3944&firstHotel=true", "address": "Ubicaci\u00f3n: 2600 West Harmon Avenue", "date": "2016-08-03 18:28:29", "longitud": "-115.178065000000000"},
{"latitud": "36.113104496456070", "city": "Hoteles en Las Vegas", "name": "Tuscany Suites & Casino", "price": ["467"], "source": "despegar", "link": "http://www.despegar.com.mx/hoteles/h-312474/tuscany-suites-y-casino-las+vegas?totalHotels=225&pageNbr=2&cl=6&rid=3944", "address": "Ubicaci\u00f3n: 255 E Flamingo Rd", "date": "2016-08-03 18:28:29", "longitud": "-115.160195009487150"},
{"latitud": "36.099646000000000", "city": "Hoteles en Las Vegas", "name": "Hampton Inn Tropicana", "price": ["1", "746"], "source": "despegar", "link": "http://www.despegar.com.mx/hoteles/h-457287/hampton-inn-tropicana-las+vegas?totalHotels=225&pageNbr=2&cl=1&rid=3944", "address": "Ubicaci\u00f3n: 4975 DEAN MARTIN DRIVE", "date": "2016-08-03 18:28:30", "longitud": "-115.183372165116510"},
{"latitud": "17.632050000000000", "city": "", "name": "Villa Mexicana", "price": ["970"], "source": "despegar", "link": "http://www.despegar.com.mx/hoteles/h-323333/villa-mexicana-zihuatanejo?totalHotels=63&pageNbr=1&cl=8&rid=179324", "address": "Ubicaci\u00f3n: Playa La Ropa S/N", "date": "2016-08-03 18:28:30", "longitud": "-101.546850000000000"},
{"latitud": "17.662107080177210", "city": "", "name": "Tesoro Ixtapa", "price": ["1", "679"], "source": "despegar", "link": "http://www.despegar.com.mx/hoteles/h-232861/tesoro-ixtapa-ixtapa?totalHotels=63&pageNbr=1&cl=10&rid=179324", "address": "Ubicaci\u00f3n: Boulevard Ixtapa Sn", "date": "2016-08-03 18:28:30", "longitud": "-101.606499212303160"},
{"latitud": "17.661022787101782", "city": "", "name": "Sunscape Dorado Pacifico Ixtapa", "price": ["1", "972"], "source": "despegar", "link": "http://www.despegar.com.mx/hoteles/h-488519/sunscape-dorado-pacifico-ixtapa-ixtapa?totalHotels=63&pageNbr=1&cl=7&rid=179324", "address": "Ubicaci\u00f3n: Ave. Paseo de Ixtapa SN Lote 3-A", "date": "2016-08-03 18:28:30", "longitud": "-101.603748033898910"},
{"latitud": "19.053270000000000", "city": "Hoteles en Puebla", "name": "La Quinta Puebla", "price": ["396"], "source": "despegar", "link": "http://www.despegar.com.mx/hoteles/h-799372/la-quinta-puebla-puebla?totalHotels=86&pageNbr=2&cl=14&rid=5555", "address": "Ubicaci\u00f3n: Boulevard Xonacatepec 139", "date": "2016-08-03 18:28:30", "longitud": "-98.145740000000000"},
{"latitud": "17.660248310105427", "city": "", "name": "Emporio Ixtapa MX", "price": ["936"], "source": "despegar", "link": "http://www.despegar.com.mx/hoteles/h-323335/emporio-ixtapa-mx-ixtapa?totalHotels=63&pageNbr=1&cl=6&rid=179324", "address": "Ubicaci\u00f3n: Blvd. Ixtapa sn, Col. Ixtapa, Mpio. Zihuatanejo de Azueta", "date": "2016-08-03 18:28:31", "longitud": "-101.603377486755330"},
{"latitud": "17.666963515958354", "city": "", "name": "Capella Ixtapa Resort & Spa", "price": ["5", "089"], "source": "despegar", "link": "http://www.despegar.com.mx/hoteles/h-232982/capella-ixtapa-resort-y-spa-ixtapa?totalHotels=63&pageNbr=1&cl=4&rid=179324", "address": "Ubicaci\u00f3n: PASEO PLAYA LINDA", "date": "2016-08-03 18:28:32", "longitud": "-101.632600000000020"},
{"latitud": "17.680841350774420", "city": "", "name": "Qualton Club Ixtapa", "price": ["1", "436"], "source": "despegar", "link": "http://www.despegar.com.mx/hoteles/h-232978/qualton-club-ixtapa-ixtapa?totalHotels=63&pageNbr=1&cl=11&rid=179324", "address": "Ubicaci\u00f3n: Carretera Escenica SN Playa Linda, 40880 Ixtapa-Zihuatanejo, M\u00e9xico", "date": "2016-08-03 18:28:32", "longitud": "-101.643897492065430"},
{"latitud": "17.656648239563996", "city": "", "name": "Barcel\u00f3 Ixtapa Beach All Inclusive", "price": ["2", "268"], "source": "despegar", "link": "http://www.despegar.com.mx/hoteles/h-357321/barcelo-ixtapa-beach-all-inclusive-ixtapa?totalHotels=63&pageNbr=1&cl=9&rid=179324", "address": "Ubicaci\u00f3n: BLVD. IXTAPA SN ZONA HOTELERA", "date": "2016-08-03 18:28:32", "longitud": "-101.599930262565640"},
{"latitud": "17.676978081560925", "city": "", "name": "Azul Ixtapa Grand All Suites - Spa & Convention Center", "price": ["2", "267"], "source": "despegar", "link": "http://www.despegar.com.mx/hoteles/h-355705/azul-ixtapa-grand-all-suitesspa-y-convention-center-ixtapa?totalHotels=63&pageNbr=1&cl=3&rid=179324", "address": "Ubicaci\u00f3n: Paseo Punta Ixtapa Lote 2 Zona Hotelera II", "date": "2016-08-03 18:28:32", "longitud": "-101.641854118392930"},
{"latitud": "17.648520403283975", "city": "", "name": "Las Brisas Ixtapa", "price": ["1", "074"], "source": "despegar", "link": "http://www.despegar.com.mx/hoteles/h-233023/las-brisas-ixtapa-ixtapa?totalHotels=63&pageNbr=1&cl=2&rid=179324", "address": "Ubicaci\u00f3n: Playa Vista Hermosa", "date": "2016-08-03 18:28:32", "longitud": "-101.59710288626098"},
{"latitud": "19.044476", "city": "Hoteles en Puebla", "name": "Hotel San Pedro", "price": ["893"], "source": "despegar", "link": "http://www.despegar.com.mx/hoteles/h-312613/hotel-san-pedro-puebla?totalHotels=86&pageNbr=2&cl=13&rid=5555", "address": "Ubicaci\u00f3n: 2 Oriente 202", "date": "2016-08-03 18:28:32", "longitud": "-98.19633859999999"},
{"latitud": "17.659307772373140", "city": "", "name": "Holiday Inn Resort Ixtapa", "price": ["1", "931"], "source": "despegar", "link": "http://www.despegar.com.mx/hoteles/h-866009/holiday-inn-resort-ixtapa-ixtapa?totalHotels=63&pageNbr=1&cl=0&rid=179324&firstHotel=true", "address": "Ubicaci\u00f3n: BOULEVARD IXTAPA S/N , IXTAPA ZIHUATANEJO, GR 40880 , M\u00e9xico", "date": "2016-08-03 18:28:33", "longitud": "-101.602422620346090"},
{"latitud": "17.63334000000002", "city": "", "name": "Villas El Morro", "price": ["378"], "source": "despegar", "link": "http://www.despegar.com.mx/hoteles/h-233040/villas-el-morro-zihuatanejo?totalHotels=63&pageNbr=1&cl=5&rid=179324", "address": "Ubicaci\u00f3n: Paseo Del Morro Lote 4, Colonia el Almac\u00e9n, Paseo de La Mantarraya, Cerro del Almac\u00e9n, 40880 Ixtapa-Zihuatanejo, Guerrero, M\u00e9xico", "date": "2016-08-03 18:28:33", "longitud": "-101.5602808306885"},
{"latitud": "19.04840564540266", "city": "Hoteles en Puebla", "name": "Hotel del Capitan de Puebla", "price": ["711"], "source": "despegar", "link": "http://www.despegar.com.mx/hoteles/h-602384/hotel-del-capitan-de-puebla-puebla?totalHotels=86&pageNbr=2&cl=12&rid=5555", "address": "Ubicaci\u00f3n: Avenida 14 Oriente 218, Colonia Centro", "date": "2016-08-03 18:28:33", "longitud": "-98.19274304390257"},
{"latitud": "19.046275", "city": "Hoteles en Puebla", "name": "Hotel Del Paseo", "price": ["488"], "source": "despegar", "link": "http://www.despegar.com.mx/hoteles/h-381436/hotel-del-paseo-puebla?totalHotels=86&pageNbr=2&cl=9&rid=5555", "address": "Ubicaci\u00f3n: 5 Poniente No. 914 Col Centro Hist\u00f3rico", "date": "2016-08-03 18:28:33", "longitud": "-98.20608300000004"},
{"latitud": "19.0401236", "city": "Hoteles en Puebla", "name": "Al Otro Lado del Rio Hotel", "price": ["1", "064"], "source": "despegar", "link": "http://www.despegar.com.mx/hoteles/h-555690/al-otro-lado-del-rio-hotel-puebla?totalHotels=86&pageNbr=2&cl=8&rid=5555", "address": "Ubicaci\u00f3n: 3 oriente 1030 Barrio de Analco,", "date": "2016-08-03 18:28:33", "longitud": "-98.19203909999999"},
{"latitud": "19.043747800000000", "city": "Hoteles en Puebla", "name": "Hotel Condesa Americana Puebla", "price": ["248"], "source": "despegar", "link": "http://www.despegar.com.mx/hoteles/h-482493/hotel-condesa-americana-puebla-puebla?totalHotels=86&pageNbr=2&cl=7&rid=5555", "address": "Ubicaci\u00f3n: 14 ote no. 3807 - A Col. America Norte", "date": "2016-08-03 18:28:34", "longitud": "-98.166948899999970"},
{"latitud": "19.098777534188695", "city": "Hoteles en Puebla", "name": "City Express Suites Puebla FINSA", "price": ["697"], "source": "despegar", "link": "http://www.despegar.com.mx/hoteles/h-653896/city-express-suites-puebla-finsa-puebla?totalHotels=86&pageNbr=2&cl=11&rid=5555", "address": "Ubicaci\u00f3n: Lateral Autopista M\u00e9xico - Puebla cp 75333 Col. Rancho Moratilla", "date": "2016-08-03 18:28:34", "longitud": "-98.23342220209963"},
{"latitud": "19.041199200000000", "city": "Hoteles en Puebla", "name": "Hotel Mes\u00f3n de San Sebasti\u00e1n", "price": ["787"], "source": "despegar", "link": "http://www.despegar.com.mx/hoteles/h-214406/hotel-meson-de-san-sebastian-puebla?totalHotels=86&pageNbr=2&cl=10&rid=5555", "address": "Ubicaci\u00f3n: 9 Oriente No. 6", "date": "2016-08-03 18:28:34", "longitud": "-98.199885999999990"},
{"latitud": "17.628635164269244", "city": "", "name": "Viceroy Zihuatanejo", "price": ["2", "969"], "source": "despegar", "link": "http://www.despegar.com.mx/hoteles/h-351813/viceroy-zihuatanejo-zihuatanejo?totalHotels=63&pageNbr=1&cl=1&rid=179324", "address": "Ubicaci\u00f3n: Playa La Ropa S N", "date": "2016-08-03 18:28:34", "longitud": "-101.543260647468570"},
{"latitud": "36.114280000000000", "city": "Hoteles en Las Vegas", "name": "Fortune Hotel & Suites", "price": ["459"], "source": "despegar", "link": "http://www.despegar.com.mx/hoteles/h-431364/fortune-hotel-y-suites-las+vegas?totalHotels=225&pageNbr=3&cl=20&rid=3944", "address": "Ubicaci\u00f3n: 325 East Flamingo Road", "date": "2016-08-03 18:28:34", "longitud": "-115.158000000000000"},
{"latitud": "17.638585137203087", "city": "", "name": "Hotel Casa Sun And Moon", "price": ["965"], "source": "despegar", "link": "http://www.despegar.com.mx/hoteles/h-342635/hotel-casa-sun-and-moon-zihuatanejo?totalHotels=63&pageNbr=2&cl=18&rid=179324", "address": "Ubicaci\u00f3n: CALLE ADELITA No. 10 COL. PLAYA MADERA 10", "date": "2016-08-03 18:28:34", "longitud": "-101.550482703041100"},
{"latitud": "17.6416693", "city": "", "name": "Hotel Corona Zihua", "price": ["442"], "source": "despegar", "link": "http://www.despegar.com.mx/hoteles/h-819831/hotel-corona-zihua-zihuatanejo?totalHotels=63&pageNbr=2&cl=20&rid=179324", "address": "Ubicaci\u00f3n: ANDADOR CARLOS PELLICER 8, ESQ. ANDADOR PASEO DEL PESCADOR, COL. CENTRO CP.40880", "date": "2016-08-03 18:28:35", "longitud": "-101.5516955"},
{"latitud": "17.638736389410713", "city": "", "name": "Zihuacaracol", "price": ["947"], "source": "despegar", "link": "http://www.despegar.com.mx/hoteles/h-342629/zihuacaracol-zihuatanejo?totalHotels=63&pageNbr=2&cl=15&rid=179324", "address": "Ubicaci\u00f3n: Adelita S/N Col. Playa la Madera", "date": "2016-08-03 18:28:35", "longitud": "-101.550278507934540"},
{"latitud": "17.640454", "city": "", "name": "Villas Mercedes", "price": ["238"], "source": "despegar", "link": "http://www.despegar.com.mx/hoteles/h-373856/villas-mercedes-zihuatanejo?totalHotels=63&pageNbr=2&cl=14&rid=179324", "address": "Ubicaci\u00f3n: Adelita #59", "date": "2016-08-03 18:28:35", "longitud": "-101.551848"},
{"latitud": "17.667000000000000", "city": "", "name": "Posada Real Ixtapa", "price": ["952"], "source": "despegar", "link": "http://www.despegar.com.mx/hoteles/h-233073/posada-real-ixtapa-ixtapa?totalHotels=63&pageNbr=2&cl=13&rid=179324", "address": "Ubicaci\u00f3n: Boulevard Ixtapa S/N Zona Hotelera", "date": "2016-08-03 18:28:35", "longitud": "-101.608499999999990"},
{"latitud": "17.664183000000000", "city": "", "name": "Sara Suites", "price": ["612"], "source": "despegar", "link": "http://www.despegar.com.mx/hoteles/h-484783/sara-suites-ixtapa?totalHotels=63&pageNbr=2&cl=11&rid=179324", "address": "Ubicaci\u00f3n: Boulevard Ixtapa Zona Hotelara MZ 4 KLt 19-A Col Marina Ixtapa", "date": "2016-08-03 18:28:35", "longitud": "-101.608033999999980"},
{"latitud": "17.644625568690520", "city": "", "name": "Hotel Victoria Zihuatanejo", "price": ["398"], "source": "despegar", "link": "http://www.despegar.com.mx/hoteles/h-482303/hotel-victoria-zihuatanejo-zihuatanejo?totalHotels=63&pageNbr=2&cl=10&rid=179324", "address": "Ubicaci\u00f3n: Av. Heroico Colegio Militar No.45", "date": "2016-08-03 18:28:36", "longitud": "-101.554445037048370"},
{"latitud": "17.642887", "city": "", "name": "Hotel Las Salinas", "price": ["287"], "source": "despegar", "link": "http://www.despegar.com.mx/hoteles/h-469081/hotel-las-salinas-zihuatanejo?totalHotels=63&pageNbr=2&cl=7&rid=179324", "address": "Ubicaci\u00f3n: Huitzilopochtli S/N Col. Cuauhtemoc", "date": "2016-08-03 18:28:36", "longitud": "-101.56206500000002"},
{"latitud": "17.648020925480953", "city": "", "name": "Hotel Casa Longino's", "price": ["388"], "source": "despegar", "link": "http://www.despegar.com.mx/hoteles/h-491150/hotel-casa-longino's-zihuatanejo?totalHotels=63&pageNbr=2&cl=12&rid=179324", "address": "Ubicaci\u00f3n: Calle Bellavista Manzana 7 Lote 1 ,Zihuatanejo, Guerrero, M\u00e9xico", "date": "2016-08-03 18:28:36", "longitud": "-101.56721474889883"},
{"latitud": "17.665639900000000", "city": "", "name": "Puerta del Mar", "price": ["996"], "source": "despegar", "link": "http://www.despegar.com.mx/hoteles/h-233030/puerta-del-mar-ixtapa?totalHotels=63&pageNbr=2&cl=8&rid=179324", "address": "Ubicaci\u00f3n: Paseo de las Gaviotas Esq. Agua de Correa s/n", "date": "2016-08-03 18:28:36", "longitud": "-101.598291899999990"},
{"latitud": "17.622945944218827", "city": "", "name": "La Escollera Suites", "price": ["1", "950"], "source": "despegar", "link": "http://www.despegar.com.mx/hoteles/h-486133/la-escollera-suites-zihuatanejo?totalHotels=63&pageNbr=2&cl=9&rid=179324", "address": "Ubicaci\u00f3n: La Escollera, Av. Esc\u00e9nica A Las Gatas 26-A", "date": "2016-08-03 18:28:36", "longitud": "-101.54359"},
{"latitud": "17.642425", "city": "", "name": "Hotel Savaro", "price": ["712"], "source": "despegar", "link": "http://www.despegar.com.mx/hoteles/h-373464/hotel-savaro-zihuatanejo?totalHotels=63&pageNbr=2&cl=5&rid=179324", "address": "Ubicaci\u00f3n: Calle Vicente Guerrero No. 73", "date": "2016-08-03 18:28:37", "longitud": "-101.55799000000002"},
{"latitud": "17.662527234577396", "city": "", "name": "Park Royal Ixtapa All Inclusive", "price": ["2", "059"], "source": "despegar", "link": "http://www.despegar.com.mx/hoteles/h-233064/park-royal-ixtapa-all-inclusive-ixtapa?totalHotels=63&pageNbr=2&cl=6&rid=179324", "address": "Ubicaci\u00f3n: BLVD. IXTAPA, LOTE 5-A, ZONA HOTELERA S/N", "date": "2016-08-03 18:28:37", "longitud": "-101.607149391235340"},
{"latitud": "17.635037893089430", "city": "", "name": "Hotel La Casa Que Canta", "price": ["4", "964"], "source": "despegar", "link": "http://www.despegar.com.mx/hoteles/h-233016/hotel-la-casa-que-canta-zihuatanejo?totalHotels=63&pageNbr=2&cl=4&rid=179324", "address": "Ubicaci\u00f3n: Camino Escenico Playa La Ropa", "date": "2016-08-03 18:28:37", "longitud": "-101.550275911639400"},
{"latitud": "17.663487720874414", "city": "", "name": "Villas Paraiso", "price": ["1", "254"], "source": "despegar", "link": "http://www.despegar.com.mx/hoteles/h-233211/villas-paraiso-ixtapa?totalHotels=63&pageNbr=2&cl=2&rid=179324", "address": "Ubicaci\u00f3n: Paseo Del Rincon Lote 1 Manzana 3 SM 3 Zona Hotelera Ixtapa Guerrero", "date": "2016-08-03 18:28:38", "longitud": "-101.601562500000000"},
{"latitud": "36.098160000000000", "city": "Hoteles en Las Vegas", "name": "Travelodge Las Vegas Airport North/Near The Strip", "price": ["961"], "source": "despegar", "link": "http://www.despegar.com.mx/hoteles/h-269449/travelodge-las-vegas-airport-north+near-the-strip-las+vegas?totalHotels=225&pageNbr=3&cl=19&rid=3944", "address": "Ubicaci\u00f3n: 5075 Koval Lane", "date": "2016-08-03 18:28:38", "longitud": "-115.163870000000000"},
{"latitud": "17.622132333336370", "city": "", "name": "Casa Kau Kan", "price": ["787"], "source": "despegar", "link": "http://www.despegar.com.mx/hoteles/h-599058/casa-kau-kan-zihuatanejo?totalHotels=63&pageNbr=2&cl=3&rid=179324", "address": "Ubicaci\u00f3n: Playa larga sn", "date": "2016-08-03 18:28:38", "longitud": "-101.506910218524180"},
{"latitud": "36.169000000000000", "city": "Hoteles en Las Vegas", "name": "El Cortez Hotel and Casino", "price": ["380"], "source": "despegar", "link": "http://www.despegar.com.mx/hoteles/h-270375/el-cortez-hotel-and-casino-las+vegas?totalHotels=225&pageNbr=3&cl=16&rid=3944", "address": "Ubicaci\u00f3n: 600 Fremont St", "date": "2016-08-03 18:28:38", "longitud": "-115.138595000000010"},
{"latitud": "17.637986900000000", "city": "", "name": "Raul 3 Marias Centro", "price": ["650"], "source": "despegar", "link": "http://www.despegar.com.mx/hoteles/h-481691/raul-3-marias-centro-zihuatanejo?totalHotels=63&pageNbr=2&cl=16&rid=179324", "address": "Ubicaci\u00f3n: Juan N. \u00c1lvarez #52", "date": "2016-08-03 18:28:38", "longitud": "-101.559105600000010"},
{"latitud": "36.115300000000000", "city": "Hoteles en Las Vegas", "name": "Rio All-Suite Hotel & Casino", "price": ["504"], "source": "despegar", "link": "http://www.despegar.com.mx/hoteles/h-269671/rio-allsuite-hotel-y-casino-las+vegas?totalHotels=225&pageNbr=3&cl=17&rid=3944", "address": "Ubicaci\u00f3n: 3700 West Flamingo", "date": "2016-08-03 18:28:38", "longitud": "-115.188045999999990"},
{"latitud": "36.100780000000000", "city": "Hoteles en Las Vegas", "name": "Americas Best Value Inn & Suites", "price": ["517"], "source": "despegar", "link": "http://www.despegar.com.mx/hoteles/h-269745/americas-best-value-inn-y-suites-las+vegas?totalHotels=225&pageNbr=3&cl=14&rid=3944", "address": "Ubicaci\u00f3n: 167 East Tropicana Avenue", "date": "2016-08-03 18:28:39", "longitud": "-115.165601000000000"},
{"latitud": "36.140230000000000", "city": "Hoteles en Las Vegas", "name": "Hilton Grand Vacations Suites-Las Vegas (Convention Center)", "price": ["1", "294"], "source": "despegar", "link": "http://www.despegar.com.mx/hoteles/h-441963/hilton-grand-vacations-suiteslas-vegas-+convention-center+-las+vegas?totalHotels=225&pageNbr=3&cl=15&rid=3944", "address": "Ubicaci\u00f3n: 455 Karen Avenue", "date": "2016-08-03 18:28:39", "longitud": "-115.154000000000000"},
{"latitud": "17.643107", "city": "", "name": "Hotel Casa de La Palma", "price": ["447"], "source": "despegar", "link": "http://www.despegar.com.mx/hoteles/h-487876/hotel-casa-de-la-palma-zihuatanejo?totalHotels=63&pageNbr=2&cl=0&rid=179324&firstHotel=true", "address": "Ubicaci\u00f3n: Ciruelos 15 Centro", "date": "2016-08-03 18:28:39", "longitud": "-101.555698"},
{"latitud": "36.139878720000000", "city": "Hoteles en Las Vegas", "name": "Hilton Grand Vacations Suites on the Las Vegas Strip", "price": ["1", "291"], "source": "despegar", "link": "http://www.despegar.com.mx/hoteles/h-269888/hilton-grand-vacations-suites-on-the-las-vegas-strip-las+vegas?totalHotels=225&pageNbr=3&cl=18&rid=3944", "address": "Ubicaci\u00f3n: 2650 Las Vegas Boulevard South", "date": "2016-08-03 18:28:39", "longitud": "-115.161179003843700"},
{"latitud": "36.109970000000000", "city": "Hoteles en Las Vegas", "name": "Red Roof Inn Las Vegas", "price": ["987"], "source": "despegar", "link": "http://www.despegar.com.mx/hoteles/h-415045/red-roof-inn-las-vegas-las+vegas?totalHotels=225&pageNbr=3&cl=8&rid=3944", "address": "Ubicaci\u00f3n: 4350 Paradise Rd", "date": "2016-08-03 18:28:39", "longitud": "-115.152609999999980"},
{"latitud": "36.143377000000000", "city": "Hoteles en Las Vegas", "name": "Palace Station Hotel and Casino", "price": ["313"], "source": "despegar", "link": "http://www.despegar.com.mx/hoteles/h-270565/palace-station-hotel-and-casino-las+vegas?totalHotels=225&pageNbr=3&cl=9&rid=3944", "address": "Ubicaci\u00f3n: 2411 WEST SAHARA AVENUE", "date": "2016-08-03 18:28:40", "longitud": "-115.175399999999970"},
{"latitud": "36.164720000000000", "city": "Hoteles en Las Vegas", "name": "Arizona Charlie's Decatur - Casino Hotel & Suites", "price": ["677"], "source": "despegar", "link": "http://www.despegar.com.mx/hoteles/h-269235/arizona-charlie's-decaturcasino-hotel-y-suites-las+vegas?totalHotels=225&pageNbr=3&cl=7&rid=3944", "address": "Ubicaci\u00f3n: 740 S. Decatur Boulevard", "date": "2016-08-03 18:28:40", "longitud": "-115.206060000000000"},
{"latitud": "36.102578000000000", "city": "Hoteles en Las Vegas", "name": "The Orleans Hotel & Casino", "price": ["704"], "source": "despegar", "link": "http://www.despegar.com.mx/hoteles/h-269701/the-orleans-hotel-y-casino-las+vegas?totalHotels=225&pageNbr=3&cl=10&rid=3944", "address": "Ubicaci\u00f3n: 4500 WEST TROPICANA AVENUE", "date": "2016-08-03 18:28:40", "longitud": "-115.201712689688120"},
{"latitud": "36.070760000000000", "city": "Hoteles en Las Vegas", "name": "La Quinta Inn & Suites Las Vegas Airport South", "price": ["1", "422"], "source": "despegar", "link": "http://www.despegar.com.mx/hoteles/h-348158/la-quinta-inn-y-suites-las-vegas-airport-south-las+vegas?totalHotels=225&pageNbr=3&cl=13&rid=3944", "address": "Ubicaci\u00f3n: 6560 Surrey St", "date": "2016-08-03 18:28:40", "longitud": "-115.123750000000000"},
{"latitud": "17.641108000000000", "city": "", "name": "Hotel Solimar Inn Suites", "price": ["504"], "source": "despegar", "link": "http://www.despegar.com.mx/hoteles/h-486550/hotel-solimar-inn-suites-zihuatanejo?totalHotels=63&pageNbr=2&cl=1&rid=179324", "address": "Ubicaci\u00f3n: Higos N\u00b0 4", "date": "2016-08-03 18:28:40", "longitud": "-101.553204999999990"},
{"latitud": "36.136349000000000", "city": "Hoteles en Las Vegas", "name": "Circus Circus Hotel and Casino", "price": ["413"], "source": "despegar", "link": "http://www.despegar.com.mx/hoteles/h-270357/circus-circus-hotel-and-casino-las+vegas?totalHotels=225&pageNbr=3&cl=6&rid=3944", "address": "Ubicaci\u00f3n: 2880 Las Vegas Boulevard South", "date": "2016-08-03 18:28:41", "longitud": "-115.162178000000000"},
{"latitud": "36.099493300000000", "city": "Hoteles en Las Vegas", "name": "Howard Johnson Las Vegas", "price": ["535"], "source": "despegar", "link": "http://www.despegar.com.mx/hoteles/h-482101/howard-johnson-las-vegas-las+vegas?totalHotels=225&pageNbr=3&cl=11&rid=3944", "address": "Ubicaci\u00f3n: 165 E Tropicana Ave", "date": "2016-08-03 18:28:41", "longitud": "-115.165779199999970"},
{"latitud": "17.634300563847248", "city": "", "name": "Club Intrawest \u2013 Zihuatanejo", "price": [], "source": "despegar", "link": "http://www.despegar.com.mx/hoteles/h-365111/club-intrawestzihuatanejo-zihuatanejo?totalHotels=63&pageNbr=3&cl=19&rid=179324", "address": "Ubicaci\u00f3n: Camino Escenico Playa la Ropa S/N", "date": "2016-08-03 18:28:41", "longitud": "-101.548430439147980"},
{"latitud": "17.629150000000000", "city": "", "name": "Hotel J.B.", "price": ["529"], "source": "despegar", "link": "http://www.despegar.com.mx/hoteles/h-724143/hotel-jb-zihuatanejo?totalHotels=63&pageNbr=3&cl=10&rid=179324", "address": "Ubicaci\u00f3n: Carretera Playa La Ropa s/n", "date": "2016-08-03 18:28:42", "longitud": "-101.542730000000000"},
{"latitud": "17.663620000000000", "city": "", "name": "Ixtapa Palace Resort", "price": [], "source": "despegar", "link": "http://www.despegar.com.mx/hoteles/h-232963/ixtapa-palace-resort-ixtapa?totalHotels=63&pageNbr=3&cl=16&rid=179324", "address": "Ubicaci\u00f3n: Paseo de las Garzas 1", "date": "2016-08-03 18:28:42", "longitud": "-101.602240000000000"},
{"latitud": "17.663889292999674", "city": "", "name": "Condominios Villas del Mar", "price": [], "source": "despegar", "link": "http://www.despegar.com.mx/hoteles/h-712927/condominios-villas-del-mar-ixtapa?totalHotels=63&pageNbr=3&cl=13&rid=179324", "address": "Ubicaci\u00f3n: Paseo de barrio viejo, esquina Salitrera", "date": "2016-08-03 18:28:42", "longitud": "-101.597807529499850"},
{"latitud": "17.632288100818098", "city": "", "name": "Hotel Villas las Azucenas", "price": [], "source": "despegar", "link": "http://www.despegar.com.mx/hoteles/h-253970/hotel-villas-las-azucenas-zihuatanejo?totalHotels=63&pageNbr=3&cl=15&rid=179324", "address": "Ubicaci\u00f3n: Calle. 1 Mz. 3 Lt 11-D Col. La Ropa", "date": "2016-08-03 18:28:42", "longitud": "-101.546393592590330"},
{"latitud": "17.638889000000000", "city": "", "name": "Hotel Arturo's", "price": [], "source": "despegar", "link": "http://www.despegar.com.mx/hoteles/h-610994/hotel-arturo's-zihuatanejo?totalHotels=63&pageNbr=3&cl=12&rid=179324", "address": "Ubicaci\u00f3n: Andador Agustin Ya\u00f1ez Sin numero entre la calle Benito Juarez y Juan N. Alvarez", "date": "2016-08-03 18:28:42", "longitud": "-101.557232000000000"},
{"latitud": "17.652170000000000", "city": "", "name": "Pacifica Golf", "price": ["2", "193"], "source": "despegar", "link": "http://www.despegar.com.mx/hoteles/h-486541/pacifica-golf-ixtapa?totalHotels=63&pageNbr=3&cl=7&rid=179324", "address": "Ubicaci\u00f3n: Paseo de la Colina s/n Colonia Vista Hermosa", "date": "2016-08-03 18:28:42", "longitud": "-101.589232799999990"},
{"latitud": "36.114690000000000", "city": "Hoteles en Las Vegas", "name": "Extended Stay America - Las Vegas - East Flamingo", "price": ["1", "222"], "source": "despegar", "link": "http://www.despegar.com.mx/hoteles/h-269004/extended-stay-americalas-vegaseast-flamingo-las+vegas?totalHotels=225&pageNbr=3&cl=5&rid=3944", "address": "Ubicaci\u00f3n: 1550 E Flamingo Rd", "date": "2016-08-03 18:28:42", "longitud": "-115.132110000000000"},
{"latitud": "17.656147245133187", "city": "", "name": "Coral Ixtapa", "price": ["810"], "source": "despegar", "link": "http://www.despegar.com.mx/hoteles/h-482038/coral-ixtapa-ixtapa?totalHotels=63&pageNbr=3&cl=8&rid=179324", "address": "Ubicaci\u00f3n: Paaseo de las Golondrinas Cluster # 17", "date": "2016-08-03 18:28:42", "longitud": "-101.587103203704830"},
{"latitud": "17.587781", "city": "", "name": "Las Palmas Resort & Beach Club", "price": ["3", "817"], "source": "despegar", "link": "http://www.despegar.com.mx/hoteles/h-485106/las-palmas-resort-y-beach-club-zihuatanejo?totalHotels=63&pageNbr=3&cl=3&rid=179324", "address": "Ubicaci\u00f3n: Carretera Playa Blanca, Lot 5", "date": "2016-08-03 18:28:43", "longitud": "-101.46159999999998"},
{"latitud": "17.650287000000000", "city": "", "name": "Pacifica Club", "price": ["1", "875"], "source": "despegar", "link": "http://www.despegar.com.mx/hoteles/h-486549/pacifica-club-ixtapa?totalHotels=63&pageNbr=3&cl=0&rid=179324&firstHotel=true", "address": "Ubicaci\u00f3n: Paseo de la Colina s/n Colonia Vista Hermosa", "date": "2016-08-03 18:28:43", "longitud": "-101.597410999999970"},
{"latitud": "36.10077", "city": "Hoteles en Las Vegas", "name": "Hooters Casino Hotel", "price": ["423"], "source": "despegar", "link": "http://www.despegar.com.mx/hoteles/h-269439/hooters-casino-hotel-las+vegas?totalHotels=225&pageNbr=3&cl=4&rid=3944", "address": "Ubicaci\u00f3n: 115 E. Tropicana", "date": "2016-08-03 18:28:43", "longitud": "-115.16751"},
{"latitud": "17.639625597954460", "city": "", "name": "Aura del Mar", "price": ["1", "696"], "source": "despegar", "link": "http://www.despegar.com.mx/hoteles/h-233144/aura-del-mar-zihuatanejo?totalHotels=63&pageNbr=3&cl=1&rid=179324", "address": "Ubicaci\u00f3n: Eva Samano de Lopez Mateos S/N", "date": "2016-08-03 18:28:43", "longitud": "-101.551909446716310"},
{"latitud": "36.010030000000000", "city": "Hoteles en Las Vegas", "name": "Grandview at Las Vegas", "price": ["1", "578"], "source": "despegar", "link": "http://www.despegar.com.mx/hoteles/h-436668/grandview-at-las-vegas-las+vegas?totalHotels=225&pageNbr=3&cl=1&rid=3944", "address": "Ubicaci\u00f3n: 9940 Las Vegas Blvd S", "date": "2016-08-03 18:28:44", "longitud": "-115.174050000000000"},
{"latitud": "17.650287000000000", "city": "", "name": "Pacifica Spa", "price": ["3", "963"], "source": "despegar", "link": "http://www.despegar.com.mx/hoteles/h-486547/pacifica-spa-ixtapa?totalHotels=63&pageNbr=3&cl=2&rid=179324", "address": "Ubicaci\u00f3n: Paseo de la Colina s/n Colonia Vista Hermosa", "date": "2016-08-03 18:28:44", "longitud": "-101.597410999999970"},
{"latitud": "36.107573800000000", "city": "Hoteles en Las Vegas", "name": "Wyndham Grand Desert", "price": ["1", "965"], "source": "despegar", "link": "http://www.despegar.com.mx/hoteles/h-270420/wyndham-grand-desert-las+vegas?totalHotels=225&pageNbr=3&cl=0&rid=3944&firstHotel=true", "address": "Ubicaci\u00f3n: 265 E. Harmon Avenue", "date": "2016-08-03 18:28:44", "longitud": "-115.161900000000000"},
{"latitud": "36.107327000000000", "city": "Hoteles en Las Vegas", "name": "Travelodge Las Vegas Center Strip", "price": ["784"], "source": "despegar", "link": "http://www.despegar.com.mx/hoteles/h-419566/travelodge-las-vegas-center-strip-las+vegas?totalHotels=225&pageNbr=3&cl=2&rid=3944", "address": "Ubicaci\u00f3n: 3735 Las Vegas Blvd South", "date": "2016-08-03 18:28:44", "longitud": "-115.172780000000000"},
{"latitud": "19.046688000000000", "city": "Hoteles en Puebla", "name": "Aristos Puebla", "price": ["542"], "source": "despegar", "link": "http://www.despegar.com.mx/hoteles/h-214552/aristos-puebla-puebla?totalHotels=86&pageNbr=2&cl=5&rid=5555", "address": "Ubicaci\u00f3n: Av. Reforma No. 533, Esq. 7 Sur Centro Hist\u00f3rico", "date": "2016-08-03 18:28:44", "longitud": "-98.203179999999970"},
{"latitud": "36.169919891426830", "city": "Hoteles en Las Vegas", "name": "the D Las Vegas", "price": ["303"], "source": "despegar", "link": "http://www.despegar.com.mx/hoteles/h-482105/the-d-las-vegas-las+vegas?totalHotels=225&pageNbr=3&cl=3&rid=3944", "address": "Ubicaci\u00f3n: 301 Fremont Street", "date": "2016-08-03 18:28:45", "longitud": "-115.142389999999980"},
{"latitud": "19.040991300000005", "city": "Hoteles en Puebla", "name": "El Sue\u00f1o Hotel + Spa", "price": ["1", "178"], "source": "despegar", "link": "http://www.despegar.com.mx/hoteles/h-214416/el-sueno-hotel-+-spa-puebla?totalHotels=86&pageNbr=2&cl=3&rid=5555", "address": "Ubicaci\u00f3n: 9 Ote No. 12 col. Centro", "date": "2016-08-03 18:28:45", "longitud": "-98.199489684655760"},
{"latitud": "19.043400000000000", "city": "Hoteles en Puebla", "name": "Hotel del Portal", "price": ["772"], "source": "despegar", "link": "http://www.despegar.com.mx/hoteles/h-214522/hotel-del-portal-puebla?totalHotels=86&pageNbr=2&cl=1&rid=5555", "address": "Ubicaci\u00f3n: Av. Juan de Palafox y Mendoza No. 205, Col. Centro", "date": "2016-08-03 18:28:45", "longitud": "-98.196800000000000"},
{"latitud": "19.044594000000000", "city": "Hoteles en Puebla", "name": "Hotel Andante", "price": ["1", "629"], "source": "despegar", "link": "http://www.despegar.com.mx/hoteles/h-491568/hotel-andante-puebla?totalHotels=86&pageNbr=2&cl=4&rid=5555", "address": "Ubicaci\u00f3n: 2 Oriente No. 15", "date": "2016-08-03 18:28:45", "longitud": "-98.196704000000010"},
{"latitud": "19.041522640565685", "city": "Hoteles en Puebla", "name": "Suites la Concordia", "price": ["942"], "source": "despegar", "link": "http://www.despegar.com.mx/hoteles/h-360652/suites-la-concordia-puebla?totalHotels=86&pageNbr=2&cl=0&rid=5555&firstHotel=true", "address": "Ubicaci\u00f3n: Calle 11 Pte. No. 301 Col. Centro, Puebla", "date": "2016-08-03 18:28:45", "longitud": "-98.202623040406020"},
{"latitud": "23.243298919481177", "city": "Hoteles en Mazatlan", "name": "Zona Dorada Inn", "price": ["405"], "source": "despegar", "link": "http://www.despegar.com.mx/hoteles/h-491354/zona-dorada-inn-mazatlan?totalHotels=57&pageNbr=2&cl=9&rid=4948", "address": "Ubicaci\u00f3n: Av Camar\u00f3n S\u00e1balo 308, Zona Dorada, 82110 Mazatl\u00e1n, SIN", "date": "2016-08-03 18:28:46", "longitud": "-106.450101986577580"},
{"latitud": "17.652827787048920", "city": "", "name": "Coral Vista del Mar", "price": ["900"], "source": "despegar", "link": "http://www.despegar.com.mx/hoteles/h-482071/coral-vista-del-mar-ixtapa?totalHotels=63&pageNbr=3&cl=4&rid=179324", "address": "Ubicaci\u00f3n: Paseo de las Golondrinas n\u00famero 238", "date": "2016-08-03 18:28:46", "longitud": "-101.589894806854260"},
{"latitud": "19.048089300000000", "city": "Hoteles en Puebla", "name": "Hotel Vitrales Capitan de Puebla", "price": ["646"], "source": "despegar", "link": "http://www.despegar.com.mx/hoteles/h-602385/hotel-vitrales-capitan-de-puebla-puebla?totalHotels=86&pageNbr=2&cl=6&rid=5555", "address": "Ubicaci\u00f3n: Av. 14 Oriente 406", "date": "2016-08-03 18:28:46", "longitud": "-98.192171000000030"},
{"latitud": "19.043557071817755", "city": "Hoteles en Puebla", "name": "Fiesta Inn Puebla Las Animas", "price": ["1", "307"], "source": "despegar", "link": "http://www.despegar.com.mx/hoteles/h-489515/fiesta-inn-puebla-las-animas-puebla?totalHotels=86&pageNbr=2&cl=2&rid=5555", "address": "Ubicaci\u00f3n: 39 Poniente Las Animas 3515", "date": "2016-08-03 18:28:46", "longitud": "-98.234960394279370"},
{"latitud": "23.264956376721250", "city": "Hoteles en Mazatlan", "name": "Marena Suites and Apartments", "price": ["1", "061"], "source": "despegar", "link": "http://www.despegar.com.mx/hoteles/h-632295/marena-suites-and-apartments-mazatlan?totalHotels=57&pageNbr=2&cl=8&rid=4948", "address": "Ubicaci\u00f3n: Boulevard del Marlin # 5305", "date": "2016-08-03 18:28:46", "longitud": "-106.463218714294440"},
{"latitud": "23.25247", "city": "Hoteles en Mazatlan", "name": "El Cid El Moro Beach Hotel", "price": ["1", "582"], "source": "despegar", "link": "http://www.despegar.com.mx/hoteles/h-342201/el-cid-el-moro-beach-hotel-mazatlan?totalHotels=57&pageNbr=2&cl=6&rid=4948", "address": "Ubicaci\u00f3n: Av Camar\u00f3n S\u00e1balo 811, 82110 Mazatlan, Sinaloa, M\u00e9xico", "date": "2016-08-03 18:28:46", "longitud": "-106.45562000000001"},
{"latitud": "23.242151812207100", "city": "Hoteles en Mazatlan", "name": "Quality Inn Mazatlan", "price": ["900"], "source": "despegar", "link": "http://www.despegar.com.mx/hoteles/h-360028/quality-inn-mazatlan-mazatlan?totalHotels=57&pageNbr=2&cl=7&rid=4948", "address": "Ubicaci\u00f3n: Bugambilias 100", "date": "2016-08-03 18:28:47", "longitud": "-106.449553749001320"},
{"latitud": "23.256940862818890", "city": "Hoteles en Mazatlan", "name": "Quijote Inn", "price": ["1", "043"], "source": "despegar", "link": "http://www.despegar.com.mx/hoteles/h-312586/quijote-inn-mazatlan?totalHotels=57&pageNbr=2&cl=3&rid=4948", "address": "Ubicaci\u00f3n: Av Camaron Sabalo SN esq tiburon, 82100 Mazatl\u00e1n", "date": "2016-08-03 18:28:47", "longitud": "-106.461424827575680"},
{"latitud": "23.2977888888889", "city": "Hoteles en Mazatlan", "name": "Torrenza Boutique", "price": ["1", "181"], "source": "despegar", "link": "http://www.despegar.com.mx/hoteles/h-342828/torrenza-boutique-mazatlan?totalHotels=57&pageNbr=2&cl=2&rid=4948", "address": "Ubicaci\u00f3n: Av. Sabalo-Cerritos SN, Col. Sabalo-Cerritos", "date": "2016-08-03 18:28:48", "longitud": "-106.48044166666699"},
{"latitud": "23.249633952053884", "city": "Hoteles en Mazatlan", "name": "Margaritas Hotel & Tennis Club", "price": ["665"], "source": "despegar", "link": "http://www.despegar.com.mx/hoteles/h-305945/margaritas-hotel-y-tennis-club-mazatlan?totalHotels=57&pageNbr=2&cl=4&rid=4948", "address": "Ubicaci\u00f3n: Av. Camaron Sabalo 709 Zona Dorada", "date": "2016-08-03 18:28:48", "longitud": "-106.454019919037820"},
{"latitud": "36.116104626173180", "city": "Hoteles en Las Vegas", "name": "Caesars Palace", "price": ["1", "447"], "source": "despegar", "link": "http://www.despegar.com.mx/hoteles/h-270450/caesars-palace-las+vegas?totalHotels=225&pageNbr=1&cl=20&rid=3944", "address": "Ubicaci\u00f3n: 3570 Las Vegas Boulevard South", "date": "2016-08-03 18:28:48", "longitud": "-115.174466010559060"},
{"latitud": "23.239923466131120", "city": "Hoteles en Mazatlan", "name": "Emporio Mazatlan", "price": ["1", "174"], "source": "despegar", "link": "http://www.despegar.com.mx/hoteles/h-312529/emporio-mazatlan-mazatlan?totalHotels=57&pageNbr=2&cl=1&rid=4948", "address": "Ubicaci\u00f3n: Ave Camaron Sabalo 51", "date": "2016-08-03 18:28:48", "longitud": "-106.446637730163560"},
{"latitud": "36.102422000000000", "city": "Hoteles en Las Vegas", "name": "Monte Carlo Resort and Casino", "price": ["754"], "source": "despegar", "link": "http://www.despegar.com.mx/hoteles/h-451863/monte-carlo-resort-and-casino-las+vegas?totalHotels=225&pageNbr=1&cl=19&rid=3944", "address": "Ubicaci\u00f3n: 3770 Las Vegas Boulevard South", "date": "2016-08-03 18:28:48", "longitud": "-115.176413000000030"},
{"latitud": "23.262364409752056", "city": "Hoteles en Mazatlan", "name": "Luna Palace Hotel and Suites", "price": ["1", "124"], "source": "despegar", "link": "http://www.despegar.com.mx/hoteles/h-305908/luna-palace-hotel-and-suites-mazatlan?totalHotels=57&pageNbr=2&cl=5&rid=4948", "address": "Ubicaci\u00f3n: Av Camar\u00f3n S\u00e1balo SN, S\u00e1balo Country, 82110 Mazatlan, Sinaloa, M\u00e9xico", "date": "2016-08-03 18:28:48", "longitud": "-106.465750085983250"},
{"latitud": "23.240867200000000", "city": "Hoteles en Mazatlan", "name": "Hotel Playa Mazatl\u00e1n", "price": ["1", "274"], "source": "despegar", "link": "http://www.despegar.com.mx/hoteles/h-305990/hotel-playa-mazatlan-mazatlan?totalHotels=57&pageNbr=2&cl=0&rid=4948&firstHotel=true", "address": "Ubicaci\u00f3n: Ave. Playa Gaviotas 202 Zona Dorada - PO Box 207", "date": "2016-08-03 18:28:49", "longitud": "-106.447298800000000"},
{"latitud": "36.075740000000000", "city": "Hoteles en Las Vegas", "name": "Holiday Inn Express Hotel & Suites Las Vegas I-215 S Beltway", "price": ["1", "915"], "source": "despegar", "link": "http://www.despegar.com.mx/hoteles/h-442532/holiday-inn-express-hotel-y-suites-las-vegas-i215-s-beltway-las+vegas?totalHotels=225&pageNbr=4&cl=20&rid=3944", "address": "Ubicaci\u00f3n: 6220 S Rainbow Blvd", "date": "2016-08-03 18:28:49", "longitud": "-115.242590000000000"},
{"latitud": "36.125734327637660", "city": "Hoteles en Las Vegas", "name": "Mardi Gras Hotel & Casino", "price": ["516"], "source": "despegar", "link": "http://www.despegar.com.mx/hoteles/h-270408/mardi-gras-hotel-y-casino-las+vegas?totalHotels=225&pageNbr=4&cl=18&rid=3944", "address": "Ubicaci\u00f3n: 3500 Paradise Road", "date": "2016-08-03 18:28:49", "longitud": "-115.154716490000000"},
{"latitud": "36.170296000000000", "city": "Hoteles en Las Vegas", "name": "Four Queens Hotel and Casino", "price": ["524"], "source": "despegar", "link": "http://www.despegar.com.mx/hoteles/h-422504/four-queens-hotel-and-casino-las+vegas?totalHotels=225&pageNbr=4&cl=16&rid=3944", "address": "Ubicaci\u00f3n: 202 Fremont St", "date": "2016-08-03 18:28:50", "longitud": "-115.143353999999990"},
{"latitud": "36.115310000000000", "city": "Hoteles en Las Vegas", "name": "The Cromwell", "price": ["1", "474"], "source": "despegar", "link": "http://www.despegar.com.mx/hoteles/h-420199/the-cromwell-las+vegas?totalHotels=225&pageNbr=4&cl=19&rid=3944", "address": "Ubicaci\u00f3n: 3595 Las Vegas Blvd S", "date": "2016-08-03 18:28:50", "longitud": "-115.172681000000000"},
{"latitud": "36.146990000000000", "city": "Hoteles en Las Vegas", "name": "Stratosphere Hotel - Casino & Resort Hotel", "price": ["319"], "source": "despegar", "link": "http://www.despegar.com.mx/hoteles/h-270260/stratosphere-hotelcasino-y-resort-hotel-las+vegas?totalHotels=225&pageNbr=1&cl=18&rid=3944", "address": "Ubicaci\u00f3n: 2000 Las Vegas Blvd S", "date": "2016-08-03 18:28:50", "longitud": "-115.155300000000000"},
{"latitud": "19.041430634454255", "city": "Hoteles en Puebla", "name": "Mes\u00f3n Sacrist\u00eda de la Compa\u00f1\u00eda", "price": ["2", "386"], "source": "despegar", "link": "http://www.despegar.com.mx/hoteles/h-214515/meson-sacristia-de-la-compania-puebla?totalHotels=86&pageNbr=3&cl=18&rid=5555", "address": "Ubicaci\u00f3n: 6 Sur No 304 Callejon los Sapos, Centro Historico", "date": "2016-08-03 18:28:50", "longitud": "-98.195278744010920"},
{"latitud": "19.093715000000000", "city": "Hoteles en Puebla", "name": "Staybridge Suites Puebla", "price": ["1", "153"], "source": "despegar", "link": "http://www.despegar.com.mx/hoteles/h-840379/staybridge-suites-puebla-puebla?totalHotels=86&pageNbr=3&cl=16&rid=5555", "address": "Ubicaci\u00f3n: Blvd. Hermanos Serdan 810", "date": "2016-08-03 18:28:50", "longitud": "-98.229533000000000"},
{"latitud": "19.059866000000000", "city": "Hoteles en Puebla", "name": "Holiday Inn Express Puebla", "price": ["969"], "source": "despegar", "link": "http://www.despegar.com.mx/hoteles/h-214316/holiday-inn-express-puebla-puebla?totalHotels=86&pageNbr=3&cl=20&rid=5555", "address": "Ubicaci\u00f3n: AV. HERMANOS SERD\u00c1N COL. AMOR 45", "date": "2016-08-03 18:28:51", "longitud": "-98.220100000000000"},
{"latitud": "19.042514564957287", "city": "Hoteles en Puebla", "name": "Casona de la China Poblana", "price": ["2", "609"], "source": "despegar", "link": "http://www.despegar.com.mx/hoteles/h-214489/casona-de-la-china-poblana-puebla?totalHotels=86&pageNbr=3&cl=12&rid=5555", "address": "Ubicaci\u00f3n: Calle 4 Norte 2, Centro Hist\u00f3rico, 72000 Puebla, M\u00e9xico", "date": "2016-08-03 18:28:51", "longitud": "-98.195958468786610"},
{"latitud": "19.0445928", "city": "Hoteles en Puebla", "name": "Hotel Palace Puebla", "price": ["620"], "source": "despegar", "link": "http://www.despegar.com.mx/hoteles/h-340463/hotel-palace-puebla-puebla?totalHotels=86&pageNbr=3&cl=15&rid=5555", "address": "Ubicaci\u00f3n: 2 Oriente No.13", "date": "2016-08-03 18:28:51", "longitud": "-98.19720749999999"},
{"latitud": "19.047209512898633", "city": "Hoteles en Puebla", "name": "Hostal Santo Domingo", "price": ["370"], "source": "despegar", "link": "http://www.despegar.com.mx/hoteles/h-482623/hostal-santo-domingo-puebla?totalHotels=86&pageNbr=3&cl=17&rid=5555", "address": "Ubicaci\u00f3n: 4 poniente no. 312 Col. Centro", "date": "2016-08-03 18:28:51", "longitud": "-98.199961342327870"},
{"latitud": "19.120756609616425", "city": "Hoteles en Puebla", "name": "One Puebla Finsa", "price": ["706"], "source": "despegar", "link": "http://www.despegar.com.mx/hoteles/h-347278/one-puebla-finsa-puebla?totalHotels=86&pageNbr=3&cl=14&rid=5555", "address": "Ubicaci\u00f3n: Lateral Sur Aut. M\u00e9xico Puebla 55", "date": "2016-08-03 18:28:51", "longitud": "-98.258229000000000"},
{"latitud": "19.027440000000000", "city": "Hoteles en Puebla", "name": "Hotel Villa Florida", "price": ["1", "200"], "source": "despegar", "link": "http://www.despegar.com.mx/hoteles/h-348524/hotel-villa-florida-puebla?totalHotels=86&pageNbr=3&cl=11&rid=5555", "address": "Ubicaci\u00f3n: Boulevard Atlixcayotl 1100, Zona Angel\u00f3polis, 72810 Puebla, M\u00e9xico", "date": "2016-08-03 18:28:51", "longitud": "-98.236319999999980"},
{"latitud": "36.115320000000000", "city": "Hoteles en Las Vegas", "name": "Flamingo Las Vegas", "price": ["473"], "source": "despegar", "link": "http://www.despegar.com.mx/hoteles/h-270340/flamingo-las-vegas-las+vegas?totalHotels=225&pageNbr=1&cl=17&rid=3944", "address": "Ubicaci\u00f3n: 3555 LAS VEGAS BLVD SOUTH", "date": "2016-08-03 18:28:51", "longitud": "-115.172728000000000"},
{"latitud": "36.10077", "city": "Hoteles en Las Vegas", "name": "Days Inn Las Vegas At Wild Wild West Gambling Hall", "price": ["433"], "source": "despegar", "link": "http://www.despegar.com.mx/hoteles/h-269334/days-inn-las-vegas-at-wild-wild-west-gambling-hall-las+vegas?totalHotels=225&pageNbr=4&cl=17&rid=3944", "address": "Ubicaci\u00f3n: 3330 W Tropicana Ave", "date": "2016-08-03 18:28:52", "longitud": "-115.18450000000001"},
{"latitud": "23.216739313244880", "city": "Hoteles en Mazatlan", "name": "Hotel de Cima", "price": [], "source": "despegar", "link": "http://www.despegar.com.mx/hoteles/h-417650/hotel-de-cima-mazatlan?totalHotels=57&pageNbr=3&cl=14&rid=4948", "address": "Ubicaci\u00f3n: Av. del Mar s/n, Col. Ferrocarrilera", "date": "2016-08-03 18:28:52", "longitud": "-106.421286837139860"},
{"latitud": "23.255797463995055", "city": "Hoteles en Mazatlan", "name": "The Palms Resort of Mazatl\u00e1n", "price": [], "source": "despegar", "link": "http://www.despegar.com.mx/hoteles/h-305955/the-palms-resort-of-mazatlan-mazatlan?totalHotels=57&pageNbr=3&cl=12&rid=4948", "address": "Ubicaci\u00f3n: Av Camar\u00f3n S\u00e1balo 696, Zona Dorada, 82110 Mazatlan, Sinaloa, M\u00e9xico", "date": "2016-08-03 18:28:52", "longitud": "-106.459505990248540"},
{"latitud": "23.225013500000000", "city": "Hoteles en Mazatlan", "name": "Hotel Sands Arenas", "price": ["739"], "source": "despegar", "link": "http://www.despegar.com.mx/hoteles/h-351206/hotel-sands-arenas-mazatlan?totalHotels=57&pageNbr=3&cl=8&rid=4948", "address": "Ubicaci\u00f3n: Av del Mar 1910, Teller\u00eda, 82017 Mazatlan, Sinaloa, M\u00e9xico", "date": "2016-08-03 18:28:52", "longitud": "-106.426512000000000"},
{"latitud": "23.248751149884175", "city": "Hoteles en Mazatlan", "name": "Mariana Beach Apartments & Hotel", "price": ["391"], "source": "despegar", "link": "http://www.despegar.com.mx/hoteles/h-378856/mariana-beach-apartments-y-hotel-mazatlan?totalHotels=57&pageNbr=3&cl=3&rid=4948", "address": "Ubicaci\u00f3n: Av Camar\u00f3n S\u00e1balo 698, Las Gaviotas, 82110 Mazatlan, Sinaloa, M\u00e9xico", "date": "2016-08-03 18:28:53", "longitud": "-106.45493626085204"},
{"latitud": "23.206842873412082", "city": "Hoteles en Mazatlan", "name": "Las 7 Maravillas", "price": [], "source": "despegar", "link": "http://www.despegar.com.mx/hoteles/h-363218/las-7-maravillas-mazatlan?totalHotels=57&pageNbr=3&cl=13&rid=4948", "address": "Ubicaci\u00f3n: Avenida Las Palmas 1, Colonia Los Pinos, Centro", "date": "2016-08-03 18:28:53", "longitud": "-106.427473425865170"},
{"latitud": "23.241787800000000", "city": "Hoteles en Mazatlan", "name": "Playa Mazatlan", "price": ["1", "091"], "source": "despegar", "link": "http://www.despegar.com.mx/hoteles/h-488998/playa-mazatlan-mazatlan?totalHotels=57&pageNbr=3&cl=7&rid=4948", "address": "Ubicaci\u00f3n: PLAYA GAVIOTA, ZONA DORADA 202", "date": "2016-08-03 18:28:53", "longitud": "-106.450065500000000"},
{"latitud": "23.216968943694100", "city": "Hoteles en Mazatlan", "name": "Hotel Playa Marina", "price": ["1", "232"], "source": "despegar", "link": "http://www.despegar.com.mx/hoteles/h-305886/hotel-playa-marina-mazatlan?totalHotels=57&pageNbr=3&cl=4&rid=4948", "address": "Ubicaci\u00f3n: AV. DEL MAR No. 73 COL. FERROCARRILERA 73", "date": "2016-08-03 18:28:53", "longitud": "-106.421907506883140"},
{"latitud": "23.241293627238020", "city": "Hoteles en Mazatlan", "name": "Playa Bonita Zona Dorada", "price": ["691"], "source": "despegar", "link": "http://www.despegar.com.mx/hoteles/h-362996/playa-bonita-zona-dorada-mazatlan?totalHotels=57&pageNbr=3&cl=2&rid=4948", "address": "Ubicaci\u00f3n: Av. Playa Gaviotas No. 27 Zona Dorada", "date": "2016-08-03 18:28:53", "longitud": "-106.447796220454390"},
{"latitud": "23.219623057231555", "city": "Hoteles en Mazatlan", "name": "Suitel 522 Eco Hostel", "price": ["528"], "source": "despegar", "link": "http://www.despegar.com.mx/hoteles/h-485279/suitel-522-eco-hostel-mazatlan?totalHotels=57&pageNbr=3&cl=0&rid=4948&firstHotel=true", "address": "Ubicaci\u00f3n: Rio Presidio, 522, 82010 Mazatl\u00e1n", "date": "2016-08-03 18:28:53", "longitud": "-106.419833657043060"},
{"latitud": "23.195570000000000", "city": "Hoteles en Mazatlan", "name": "Best Western Posada Freeman", "price": ["1", "116"], "source": "despegar", "link": "http://www.despegar.com.mx/hoteles/h-838973/best-western-posada-freeman-mazatlan?totalHotels=57&pageNbr=3&cl=6&rid=4948", "address": "Ubicaci\u00f3n: Av Olas Altas 79 Sur, Centro Historico", "date": "2016-08-03 18:28:54", "longitud": "-106.426359999999990"},
{"latitud": "19.060403000000000", "city": "Hoteles en Puebla", "name": "InterContinental Presidente Puebla", "price": ["1", "677"], "source": "despegar", "link": "http://www.despegar.com.mx/hoteles/h-327106/intercontinental-presidente-puebla-puebla?totalHotels=86&pageNbr=3&cl=8&rid=5555", "address": "Ubicaci\u00f3n: Ave. Hermanos Serdan No.141, Colonia Amor, Puebla, Puebla Mexico", "date": "2016-08-03 18:28:54", "longitud": "-98.221201000000010"},
{"latitud": "23.215610000000000", "city": "Hoteles en Mazatlan", "name": "Hotel Hacienda Mazatlan", "price": ["956"], "source": "despegar", "link": "http://www.despegar.com.mx/hoteles/h-370621/hotel-hacienda-mazatlan-mazatlan?totalHotels=57&pageNbr=3&cl=5&rid=4948", "address": "Ubicaci\u00f3n: Av. del Mar y Flamingos", "date": "2016-08-03 18:28:54", "longitud": "-106.421269999999990"},
{"latitud": "19.099338000000000", "city": "Hoteles en Puebla", "name": "Fiesta Inn Puebla Finsa", "price": ["836"], "source": "despegar", "link": "http://www.despegar.com.mx/hoteles/h-357112/fiesta-inn-puebla-finsa-puebla?totalHotels=86&pageNbr=3&cl=6&rid=5555", "address": "Ubicaci\u00f3n: Rancho Moratilla 7735", "date": "2016-08-03 18:28:54", "longitud": "-98.234620000000000"},
{"latitud": "19.042789000000000", "city": "Hoteles en Puebla", "name": "Puebla De Anta\u00f1o Hotel Boutique", "price": ["1", "197"], "source": "despegar", "link": "http://www.despegar.com.mx/hoteles/h-214321/puebla-de-antano-hotel-boutique-puebla?totalHotels=86&pageNbr=3&cl=10&rid=5555", "address": "Ubicaci\u00f3n: Calle 3 Oriente No 206 Centro Historico", "date": "2016-08-03 18:28:54", "longitud": "-98.197213000000030"},
{"latitud": "19.044670000000000", "city": "Hoteles en Puebla", "name": "Hotel Imperial", "price": ["620"], "source": "despegar", "link": "http://www.despegar.com.mx/hoteles/h-327082/hotel-imperial-puebla?totalHotels=86&pageNbr=3&cl=7&rid=5555", "address": "Ubicaci\u00f3n: Av 4 Oriente 212, Centro Hist\u00f3rico, 72000 Puebla, M\u00e9xico", "date": "2016-08-03 18:28:54", "longitud": "-98.195180000000000"},
{"latitud": "19.042995464577580", "city": "Hoteles en Puebla", "name": "MM Grand Puebla", "price": ["1", "845"], "source": "despegar", "link": "http://www.despegar.com.mx/hoteles/h-892934/mm-grand-puebla-puebla?totalHotels=86&pageNbr=3&cl=3&rid=5555", "address": "Ubicaci\u00f3n: Blvd. Atlixco 4303 Col. Las Animas Santa Anita", "date": "2016-08-03 18:28:54", "longitud": "-98.237879317791000"},
{"latitud": "19.071183000000005", "city": "Hoteles en Puebla", "name": "Hotel Granada", "price": ["540"], "source": "despegar", "link": "http://www.despegar.com.mx/hoteles/h-364911/hotel-granada-puebla?totalHotels=86&pageNbr=3&cl=1&rid=5555", "address": "Ubicaci\u00f3n: Blvd. De La Pedrera 2303", "date": "2016-08-03 18:28:55", "longitud": "-98.20384208465578"},
{"latitud": "19.042500000000000", "city": "Hoteles en Puebla", "name": "Hotel Casa de la Palma Travel", "price": ["952"], "source": "despegar", "link": "http://www.despegar.com.mx/hoteles/h-454221/hotel-casa-de-la-palma-travel-puebla?totalHotels=86&pageNbr=3&cl=2&rid=5555", "address": "Ubicaci\u00f3n: 3 ORIENTE COL CENTRO 213", "date": "2016-08-03 18:28:55", "longitud": "-98.196720000000030"},
{"latitud": "23.259244200000000", "city": "Hoteles en Mazatlan", "name": "Hotel Solamar Inn", "price": ["798"], "source": "despegar", "link": "http://www.despegar.com.mx/hoteles/h-679651/hotel-solamar-inn-mazatlan?totalHotels=57&pageNbr=3&cl=1&rid=4948", "address": "Ubicaci\u00f3n: Av. Camaron Sabalo #1942, Fracc. Sabalo Country Club", "date": "2016-08-03 18:28:55", "longitud": "-106.462253499999970"},
{"latitud": "19.046332375545177", "city": "Hoteles en Puebla", "name": "Hotel Villahernan", "price": ["1", "102"], "source": "despegar", "link": "http://www.despegar.com.mx/hoteles/h-544012/hotel-villahernan-puebla?totalHotels=86&pageNbr=3&cl=0&rid=5555&firstHotel=true", "address": "Ubicaci\u00f3n: Calle 2 Norte No. 608 Col. Centro", "date": "2016-08-03 18:28:55", "longitud": "-98.195480340475460"},
{"latitud": "19.098835000000000", "city": "Hoteles en Puebla", "name": "Holiday Inn Puebla Finsa", "price": ["1", "736"], "source": "despegar", "link": "http://www.despegar.com.mx/hoteles/h-214468/holiday-inn-puebla-finsa-puebla?totalHotels=86&pageNbr=3&cl=4&rid=5555", "address": "Ubicaci\u00f3n: Lateral Autopista Mexico - Puebla Num 7719", "date": "2016-08-03 18:28:56", "longitud": "-98.208389878272440"},
{"latitud": "36.114420000000000", "city": "Hoteles en Las Vegas", "name": "Platinum Hotel", "price": ["1", "887"], "source": "despegar", "link": "http://www.despegar.com.mx/hoteles/h-270308/platinum-hotel-las+vegas?totalHotels=225&pageNbr=4&cl=15&rid=3944", "address": "Ubicaci\u00f3n: 211 E Flamingo Rd", "date": "2016-08-03 18:28:56", "longitud": "-115.163234000000000"},
{"latitud": "36.128650000000000", "city": "Hoteles en Las Vegas", "name": "Crossland Economy Studios - Las Vegas - Boulder Highway", "price": ["746"], "source": "despegar", "link": "http://www.despegar.com.mx/hoteles/h-269287/crossland-economy-studioslas-vegasboulder-highway-las+vegas?totalHotels=225&pageNbr=4&cl=13&rid=3944", "address": "Ubicaci\u00f3n: 4240 Boulder Hwy", "date": "2016-08-03 18:28:56", "longitud": "-115.082480000000000"},
{"latitud": "36.107990000000000", "city": "Hoteles en Las Vegas", "name": "The Carriage House", "price": ["1", "422"], "source": "despegar", "link": "http://www.despegar.com.mx/hoteles/h-270000/the-carriage-house-las+vegas?totalHotels=225&pageNbr=4&cl=14&rid=3944", "address": "Ubicaci\u00f3n: 105 E Harmon Ave", "date": "2016-08-03 18:28:56", "longitud": "-115.168460000000000"},
{"latitud": "19.046251000000000", "city": "Hoteles en Puebla", "name": "Gente de mas Hostel", "price": ["355"], "source": "despegar", "link": "http://www.despegar.com.mx/hoteles/h-565246/gente-de-mas-hostel-puebla?totalHotels=86&pageNbr=3&cl=9&rid=5555", "address": "Ubicaci\u00f3n: 3 Poniene No. 713", "date": "2016-08-03 18:28:56", "longitud": "-98.204302999999980"},
{"latitud": "36.156055000000000", "city": "Hoteles en Las Vegas", "name": "Super 8 Las Vegas", "price": ["427"], "source": "despegar", "link": "http://www.despegar.com.mx/hoteles/h-457712/super-8-las-vegas-las+vegas?totalHotels=225&pageNbr=4&cl=12&rid=3944", "address": "Ubicaci\u00f3n: 1213 South Las Vegas Blvd", "date": "2016-08-03 18:28:57", "longitud": "-115.148277000000010"},
{"latitud": "36.092050000000000", "city": "Hoteles en Las Vegas", "name": "Mandalay Bay Resort And Casino", "price": ["1", "156"], "source": "despegar", "link": "http://www.despegar.com.mx/hoteles/h-356644/mandalay-bay-resort-and-casino-las+vegas?totalHotels=225&pageNbr=4&cl=10&rid=3944", "address": "Ubicaci\u00f3n: 3950 Las Vegas Boulevard South", "date": "2016-08-03 18:28:57", "longitud": "-115.175034000000000"},
{"latitud": "36.100040000000000", "city": "Hoteles en Las Vegas", "name": "Best Western McCarran Inn", "price": ["1", "111"], "source": "despegar", "link": "http://www.despegar.com.mx/hoteles/h-456691/best-western-mccarran-inn-las+vegas?totalHotels=225&pageNbr=4&cl=6&rid=3944", "address": "Ubicaci\u00f3n: 4970 PARADISE ROAD", "date": "2016-08-03 18:28:57", "longitud": "-115.149155000000000"},
{"latitud": "36.100680000000000", "city": "Hoteles en Las Vegas", "name": "Tahiti All-Suite Resort", "price": ["943"], "source": "despegar", "link": "http://www.despegar.com.mx/hoteles/h-270222/tahiti-allsuite-resort-las+vegas?totalHotels=225&pageNbr=4&cl=8&rid=3944", "address": "Ubicaci\u00f3n: 5101 W Tropicana Ave", "date": "2016-08-03 18:28:57", "longitud": "-115.210490000000000"},
{"latitud": "36.171744569684910", "city": "Hoteles en Las Vegas", "name": "Downtown Grand Las Vegas", "price": ["564"], "source": "despegar", "link": "http://www.despegar.com.mx/hoteles/h-536620/downtown-grand-las-vegas-las+vegas?totalHotels=225&pageNbr=4&cl=4&rid=3944", "address": "Ubicaci\u00f3n: 206 North 3rd Street", "date": "2016-08-03 18:28:58", "longitud": "-115.141572000000000"},
{"latitud": "36.083818000000000", "city": "Hoteles en Las Vegas", "name": "Staybridge Suites Las Vegas", "price": ["2", "412"], "source": "despegar", "link": "http://www.despegar.com.mx/hoteles/h-478456/staybridge-suites-las-vegas-las+vegas?totalHotels=225&pageNbr=4&cl=3&rid=3944", "address": "Ubicaci\u00f3n: 5735 Dean Martin Dr", "date": "2016-08-03 18:28:58", "longitud": "-115.182019000000000"},
{"latitud": "36.13603", "city": "Hoteles en Las Vegas", "name": "Westgate Las Vegas Resort & Casino", "price": ["362"], "source": "despegar", "link": "http://www.despegar.com.mx/hoteles/h-270074/westgate-las-vegas-resort-y-casino-las+vegas?totalHotels=225&pageNbr=4&cl=2&rid=3944", "address": "Ubicaci\u00f3n: 3000 S. Paradise Road", "date": "2016-08-03 18:28:58", "longitud": "-115.15471000000002"},
{"latitud": "36.132722000000000", "city": "Hoteles en Las Vegas", "name": "Boulder Station Hotel and Casino", "price": ["370"], "source": "despegar", "link": "http://www.despegar.com.mx/hoteles/h-415364/boulder-station-hotel-and-casino-las+vegas?totalHotels=225&pageNbr=4&cl=11&rid=3944", "address": "Ubicaci\u00f3n: 4111 Boulder Hwy", "date": "2016-08-03 18:28:58", "longitud": "-115.084779000000030"},
{"latitud": "36.108110000000000", "city": "Hoteles en Las Vegas", "name": "Elara, a Hilton Grand Vacations Club-Center Strip", "price": ["1", "713"], "source": "despegar", "link": "http://www.despegar.com.mx/hoteles/h-341430/elara,-a-hilton-grand-vacations-clubcenter-strip-las+vegas?totalHotels=225&pageNbr=4&cl=9&rid=3944", "address": "Ubicaci\u00f3n: 80 East Harmon Avenue Las Vegas Nevada 89109", "date": "2016-08-03 18:28:58", "longitud": "-115.168744000000000"},
{"latitud": "36.049670000000000", "city": "Hoteles en Las Vegas", "name": "Baymont Inn & Suites Las Vegas South Strip", "price": ["1", "264"], "source": "despegar", "link": "http://www.despegar.com.mx/hoteles/h-457817/baymont-inn-y-suites-las-vegas-south-strip-las+vegas?totalHotels=225&pageNbr=4&cl=0&rid=3944&firstHotel=true", "address": "Ubicaci\u00f3n: 55 E Robindale Road", "date": "2016-08-03 18:28:58", "longitud": "-115.169870000000000"},
{"latitud": "36.121249000000000", "city": "Hoteles en Las Vegas", "name": "Mirage Resort & Casino", "price": ["1", "156"], "source": "despegar", "link": "http://www.despegar.com.mx/hoteles/h-269799/mirage-resort-y-casino-las+vegas?totalHotels=225&pageNbr=1&cl=16&rid=3944", "address": "Ubicaci\u00f3n: 3400 Las Vegas Boulevard South", "date": "2016-08-03 18:28:59", "longitud": "-115.172360000000030"},
{"latitud": "36.155000000000000", "city": "Hoteles en Las Vegas", "name": "Red Rock Casino, Resort and Spa", "price": ["1", "286"], "source": "despegar", "link": "http://www.despegar.com.mx/hoteles/h-454099/red-rock-casino,-resort-and-spa-las+vegas?totalHotels=225&pageNbr=4&cl=7&rid=3944", "address": "Ubicaci\u00f3n: 11011 West Charleston Boulevard", "date": "2016-08-03 18:28:59", "longitud": "-115.333520000000020"},
{"latitud": "36.085090000000000", "city": "Hoteles en Las Vegas", "name": "Holiday Inn Express Las Vegas South", "price": ["1", "835"], "source": "despegar", "link": "http://www.despegar.com.mx/hoteles/h-269502/holiday-inn-express-las-vegas-south-las+vegas?totalHotels=225&pageNbr=4&cl=5&rid=3944", "address": "Ubicaci\u00f3n: 5760 Polaris Ave", "date": "2016-08-03 18:28:59", "longitud": "-115.185560000000000"},
{"latitud": "36.108027000000000", "city": "Hoteles en Las Vegas", "name": "Alexis Park All Suite Resort", "price": ["794"], "source": "despegar", "link": "http://www.despegar.com.mx/hoteles/h-269033/alexis-park-all-suite-resort-las+vegas?totalHotels=225&pageNbr=4&cl=1&rid=3944", "address": "Ubicaci\u00f3n: 375 East Harmon Avenue", "date": "2016-08-03 18:28:59", "longitud": "-115.156090000000000"},
{"latitud": "19.314637", "city": "Hoteles en Puebla", "name": "Hotel Mision Grand Ex-Hacienda Chautla", "price": [], "source": "despegar", "link": "http://www.despegar.com.mx/hoteles/h-560762/hotel-mision-grand-exhacienda-chautla-puebla?totalHotels=86&pageNbr=4&cl=19&rid=5555", "address": "Ubicaci\u00f3n: Camino Ex Hacienda de Chautla SN San Lucas El Grande, San Salvador El Verde, C.P 74135, Puebla.", "date": "2016-08-03 18:29:00", "longitud": "-98.47279671163938"},
{"latitud": "19.045260000000000", "city": "Hoteles en Puebla", "name": "Hotel Se\u00f1orial", "price": [], "source": "despegar", "link": "http://www.despegar.com.mx/hoteles/h-340468/hotel-senorial-puebla?totalHotels=86&pageNbr=4&cl=15&rid=5555", "address": "Ubicaci\u00f3n: C.4 Norte No 602 (entre 6 y 8 Oriente)", "date": "2016-08-03 18:29:00", "longitud": "-98.194230000000000"},
{"latitud": "19.092891506929440", "city": "Hoteles en Puebla", "name": "Marriott Real Puebla", "price": [], "source": "despegar", "link": "http://www.despegar.com.mx/hoteles/h-816386/marriott-real-puebla-puebla?totalHotels=86&pageNbr=4&cl=18&rid=5555", "address": "Ubicaci\u00f3n: AVENIDA HERMANOS SERDAN 807,FRACC., COL. SAN RAFAEL PONIENTE, PUEBLA, 72116", "date": "2016-08-03 18:29:00", "longitud": "-98.230658000000000"},
{"latitud": "19.075682231837458", "city": "Hoteles en Puebla", "name": "Hotel Central", "price": [], "source": "despegar", "link": "http://www.despegar.com.mx/hoteles/h-432218/hotel-central-puebla?totalHotels=86&pageNbr=4&cl=14&rid=5555", "address": "Ubicaci\u00f3n: Retorno del Plomo, 7 Colonia Jesus Gonzalez Ortega, 72040 Puebla, M\u00e9xico", "date": "2016-08-03 18:29:00", "longitud": "-98.208337826922620"},
{"latitud": "19.016370000000000", "city": "Hoteles en Puebla", "name": "Holiday Inn Express Hotel & Suites Puebla Angelopolis", "price": [], "source": "despegar", "link": "http://www.despegar.com.mx/hoteles/h-530050/holiday-inn-express-hotel-y-suites-puebla-angelopolis-puebla?totalHotels=86&pageNbr=4&cl=12&rid=5555", "address": "Ubicaci\u00f3n: Av Perseo Oriente 2502", "date": "2016-08-03 18:29:01", "longitud": "-98.237360000000000"},
{"latitud": "19.060110000000000", "city": "Hoteles en Puebla", "name": "Hotel Mision Arcangel Puebla", "price": ["981"], "source": "despegar", "link": "http://www.despegar.com.mx/hoteles/h-348523/hotel-mision-arcangel-puebla-puebla?totalHotels=86&pageNbr=4&cl=5&rid=5555", "address": "Ubicaci\u00f3n: Diagonal Defensores de la Republica No. 276 Puebla", "date": "2016-08-03 18:29:01", "longitud": "-98.206421999999980"},
{"latitud": "19.055153400000000", "city": "Hoteles en Puebla", "name": "Hotel Casa Shalom", "price": [], "source": "despegar", "link": "http://www.despegar.com.mx/hoteles/h-485931/hotel-casa-shalom-puebla?totalHotels=86&pageNbr=4&cl=17&rid=5555", "address": "Ubicaci\u00f3n: Tehuacan sur no 185 col. La paz, Puebla, Puebla", "date": "2016-08-03 18:29:01", "longitud": "-98.231615900000010"},
{"latitud": "19.066567806698853", "city": "Hoteles en Puebla", "name": "Hacienda Del Molino", "price": [], "source": "despegar", "link": "http://www.despegar.com.mx/hoteles/h-214330/hacienda-del-molino-puebla?totalHotels=86&pageNbr=4&cl=13&rid=5555", "address": "Ubicaci\u00f3n: Calz. del Bosque 10 Col. San Jose del Puente", "date": "2016-08-03 18:29:01", "longitud": "-98.24348178399202"},
{"latitud": "19.073153400000000", "city": "Hoteles en Puebla", "name": "Hotel Kapu", "price": ["420"], "source": "despegar", "link": "http://www.despegar.com.mx/hoteles/h-363979/hotel-kapu-puebla?totalHotels=86&pageNbr=4&cl=6&rid=5555", "address": "Ubicaci\u00f3n: Blvd. norte 4228 col. las cuartillas", "date": "2016-08-03 18:29:01", "longitud": "-98.204108700000000"},
{"latitud": "36.118810000000000", "city": "Hoteles en Las Vegas", "name": "Harrah's Hotel and Casino Las Vegas", "price": ["513"], "source": "despegar", "link": "http://www.despegar.com.mx/hoteles/h-269918/harrah's-hotel-and-casino-las-vegas-las+vegas?totalHotels=225&pageNbr=1&cl=14&rid=3944", "address": "Ubicaci\u00f3n: 3475 LAS VEGAS BLVD S, LAS VEGAS NV 89109, UNITED STATES", "date": "2016-08-03 18:29:02", "longitud": "-115.172379999999970"},
{"latitud": "36.117370000000000", "city": "Hoteles en Las Vegas", "name": "Nobu Hotel", "price": ["2", "794"], "source": "despegar", "link": "http://www.despegar.com.mx/hoteles/h-636952/nobu-hotel-las+vegas?totalHotels=225&pageNbr=1&cl=15&rid=3944", "address": "Ubicaci\u00f3n: 3570 Las Vegas Boulevard South", "date": "2016-08-03 18:29:02", "longitud": "-115.174527000000010"},
{"latitud": "19.046999886631966", "city": "Hoteles en Puebla", "name": "Caba\u00f1as Campo Real", "price": [], "source": "despegar", "link": "http://www.despegar.com.mx/hoteles/h-214325/cabanas-campo-real-puebla?totalHotels=86&pageNbr=5&cl=0&rid=5555&firstHotel=true", "address": "Ubicaci\u00f3n: 2 NORTE Y 9 PONIENTE S/N", "date": "2016-08-03 18:29:02", "longitud": "-98.192700147628780"},
{"latitud": "36.107768000000000", "city": "Hoteles en Las Vegas", "name": "ARIA Resort & Casino", "price": ["1", "619"], "source": "despegar", "link": "http://www.despegar.com.mx/hoteles/h-341246/aria-resort-y-casino-las+vegas?totalHotels=225&pageNbr=1&cl=8&rid=3944", "address": "Ubicaci\u00f3n: 3730 Las Vegas Boulevard South", "date": "2016-08-03 18:29:03", "longitud": "-115.176780000000010"},
{"latitud": "36.113534200000000", "city": "Hoteles en Las Vegas", "name": "Bally's Las Vegas", "price": ["521"], "source": "despegar", "link": "http://www.despegar.com.mx/hoteles/h-345708/bally's-las-vegas-las+vegas?totalHotels=225&pageNbr=1&cl=10&rid=3944", "address": "Ubicaci\u00f3n: 3645 Las Vegas Boulevard South", "date": "2016-08-03 18:29:03", "longitud": "-115.171579000000000"},
{"latitud": "36.120270588053074", "city": "Hoteles en Las Vegas", "name": "Best Western Plus Casino Royale", "price": ["1", "225"], "source": "despegar", "link": "http://www.despegar.com.mx/hoteles/h-452833/best-western-plus-casino-royale-las+vegas?totalHotels=225&pageNbr=1&cl=12&rid=3944", "address": "Ubicaci\u00f3n: 3411 Las Vegas Blvd South", "date": "2016-08-03 18:29:03", "longitud": "-115.172027349472050"},
{"latitud": "36.122090000000000", "city": "Hoteles en Las Vegas", "name": "The Venetian Resort Hotel & Casino", "price": ["2", "305"], "source": "despegar", "link": "http://www.despegar.com.mx/hoteles/h-312532/the-venetian-resort-hotel-y-casino-las+vegas?totalHotels=225&pageNbr=1&cl=9&rid=3944", "address": "Ubicaci\u00f3n: 3355 Las Vegas Blvd South", "date": "2016-08-03 18:29:03", "longitud": "-115.170213000000000"},
{"latitud": "36.129361689183030", "city": "Hoteles en Las Vegas", "name": "Encore at Wynn Las Vegas", "price": ["2", "703"], "source": "despegar", "link": "http://www.despegar.com.mx/hoteles/h-269613/encore-at-wynn-las-vegas-las+vegas?totalHotels=225&pageNbr=1&cl=5&rid=3944", "address": "Ubicaci\u00f3n: 3121 Las Vegas Boulevard South", "date": "2016-08-03 18:29:04", "longitud": "-115.166473997344950"},
{"latitud": "36.142850000000000", "city": "Hoteles en Las Vegas", "name": "SLS Las Vegas a Tribute Portfolio Resort", "price": ["1", "016"], "source": "despegar", "link": "http://www.despegar.com.mx/hoteles/h-651043/sls-las-vegas-a-tribute-portfolio-resort-las+vegas?totalHotels=225&pageNbr=1&cl=13&rid=3944", "address": "Ubicaci\u00f3n: 2535 LAS VEGAS BLVD SOUTH", "date": "2016-08-03 18:29:04", "longitud": "-115.156618000000000"},
{"latitud": "36.116940000000000", "city": "Hoteles en Las Vegas", "name": "The Palazzo Resort Hotel & Casino", "price": ["2", "285"], "source": "despegar", "link": "http://www.despegar.com.mx/hoteles/h-269766/the-palazzo-resort-hotel-y-casino-las+vegas?totalHotels=225&pageNbr=1&cl=7&rid=3944", "address": "Ubicaci\u00f3n: 3325 LAS VEGAS BLVD SOUTH", "date": "2016-08-03 18:29:04", "longitud": "-115.169571000000000"},
{"latitud": "36.164910000000000", "city": "Hoteles en Las Vegas", "name": "Las Vegas Hostel", "price": ["538"], "source": "despegar", "link": "http://www.despegar.com.mx/hoteles/h-682188/las-vegas-hostel-las+vegas?totalHotels=225&pageNbr=5&cl=20&rid=3944", "address": "Ubicaci\u00f3n: 1322 Fremont Street", "date": "2016-08-03 18:29:04", "longitud": "-115.130999999999970"},
{"latitud": "36.122770000000000", "city": "Hoteles en Las Vegas", "name": "Arizona Charlie's Boulder - Casino Hotel, Suites, & RV Park", "price": ["480"], "source": "despegar", "link": "http://www.despegar.com.mx/hoteles/h-269468/arizona-charlie's-bouldercasino-hotel,-suites,-y-rv-park-las+vegas?totalHotels=225&pageNbr=5&cl=18&rid=3944", "address": "Ubicaci\u00f3n: 4575 Boulder Hwy", "date": "2016-08-03 18:29:04", "longitud": "-115.075330000000010"},
{"latitud": "36.106670000000000", "city": "Hoteles en Las Vegas", "name": "Polo Towers by Diamond Resorts", "price": ["963"], "source": "despegar", "link": "http://www.despegar.com.mx/hoteles/h-669707/polo-towers-by-diamond-resorts-las+vegas?totalHotels=225&pageNbr=5&cl=17&rid=3944", "address": "Ubicaci\u00f3n: 3745 Las Vegas Blvd S", "date": "2016-08-03 18:29:04", "longitud": "-115.172810000000030"},
{"latitud": "36.171570000000000", "city": "Hoteles en Las Vegas", "name": "Golden Gate Hotel and Casino", "price": ["357"], "source": "despegar", "link": "http://www.despegar.com.mx/hoteles/h-269268/golden-gate-hotel-and-casino-las+vegas?totalHotels=225&pageNbr=5&cl=19&rid=3944", "address": "Ubicaci\u00f3n: 1 Fremont St", "date": "2016-08-03 18:29:04", "longitud": "-115.146400000000000"},
{"latitud": "36.107477000000000", "city": "Hoteles en Las Vegas", "name": "Marriott's Grand Chateau", "price": ["1", "551"], "source": "despegar", "link": "http://www.despegar.com.mx/hoteles/h-467088/marriott's-grand-chateau-las+vegas?totalHotels=225&pageNbr=1&cl=6&rid=3944", "address": "Ubicaci\u00f3n: 75 E Harmon Avenue", "date": "2016-08-03 18:29:04", "longitud": "-115.169970000000030"},
{"latitud": "36.118161000000000", "city": "Hoteles en Las Vegas", "name": "Holiday Inn Club Vacations Las Vegas - Desert Club Resort", "price": ["1", "789"], "source": "despegar", "link": "http://www.despegar.com.mx/hoteles/h-442531/holiday-inn-club-vacations-las-vegasdesert-club-resort-las+vegas?totalHotels=225&pageNbr=1&cl=11&rid=3944", "address": "Ubicaci\u00f3n: 3950 Koval Lane", "date": "2016-08-03 18:29:04", "longitud": "-115.163954999999990"},
{"latitud": "36.170740000000000", "city": "Hoteles en Las Vegas", "name": "Oasis at Gold Spike", "price": ["287"], "source": "despegar", "link": "http://www.despegar.com.mx/hoteles/h-409351/oasis-at-gold-spike-las+vegas?totalHotels=225&pageNbr=5&cl=14&rid=3944", "address": "Ubicaci\u00f3n: 217 Las Vegas Blvd North", "date": "2016-08-03 18:29:05", "longitud": "-115.140680000000000"},
{"latitud": "36.134368000000000", "city": "Hoteles en Las Vegas", "name": "SpringHill Suites by Marriott Las Vegas Convention Center", "price": ["1", "749"], "source": "despegar", "link": "http://www.despegar.com.mx/hoteles/h-341054/springhill-suites-by-marriott-las-vegas-convention-center-las+vegas?totalHotels=225&pageNbr=5&cl=16&rid=3944", "address": "Ubicaci\u00f3n: 2989 Paradise Road", "date": "2016-08-03 18:29:05", "longitud": "-115.154880000000000"},
{"latitud": "36.031777000000000", "city": "Hoteles en Las Vegas", "name": "Fiesta Henderson Hotel and Casino", "price": ["466"], "source": "despegar", "link": "http://www.despegar.com.mx/hoteles/h-493954/fiesta-henderson-hotel-and-casino-las+vegas?totalHotels=225&pageNbr=5&cl=15&rid=3944", "address": "Ubicaci\u00f3n: 777 West Lake Mead Parkway", "date": "2016-08-03 18:29:05", "longitud": "-115.004963000000000"},
{"latitud": "36.099045", "city": "Hoteles en Las Vegas", "name": "Tropicana Las Vegas - a DoubleTree by Hilton Hotel", "price": ["709"], "source": "despegar", "link": "http://www.despegar.com.mx/hoteles/h-312450/tropicana-las-vegasa-doubletree-by-hilton-hotel-las+vegas?totalHotels=225&pageNbr=5&cl=13&rid=3944", "address": "Ubicaci\u00f3n: 3801 Las Vegas Blvd", "date": "2016-08-03 18:29:05", "longitud": "-115.17045200000001"},
{"latitud": "36.250890000000000", "city": "Hoteles en Las Vegas", "name": "Santa Fe Station Hotel & Casino", "price": ["563"], "source": "despegar", "link": "http://www.despegar.com.mx/hoteles/h-269940/santa-fe-station-hotel-y-casino-las+vegas?totalHotels=225&pageNbr=5&cl=11&rid=3944", "address": "Ubicaci\u00f3n: 4949 North Rancho Drive", "date": "2016-08-03 18:29:05", "longitud": "-115.242849200000020"},
{"latitud": "36.113793000000000", "city": "Hoteles en Las Vegas", "name": "Silver Sevens Hotel & Casino", "price": ["427"], "source": "despegar", "link": "http://www.despegar.com.mx/hoteles/h-416557/silver-sevens-hotel-y-casino-las+vegas?totalHotels=225&pageNbr=5&cl=8&rid=3944", "address": "Ubicaci\u00f3n: 4100 Paradise Rd", "date": "2016-08-03 18:29:06", "longitud": "-115.152577000000010"},
{"latitud": "36.047270000000000", "city": "Hoteles en Las Vegas", "name": "Hilton Garden Inn Las Vegas Strip South", "price": ["1", "654"], "source": "despegar", "link": "http://www.despegar.com.mx/hoteles/h-441960/hilton-garden-inn-las-vegas-strip-south-las+vegas?totalHotels=225&pageNbr=5&cl=7&rid=3944", "address": "Ubicaci\u00f3n: 7830 South Las Vegas Boulevard", "date": "2016-08-03 18:29:06", "longitud": "-115.172000000000000"},
{"latitud": "36.115420000000000", "city": "Hoteles en Las Vegas", "name": "Palms Place Hotel and Spa at the Palms Las Vegas", "price": ["1", "083"], "source": "despegar", "link": "http://www.despegar.com.mx/hoteles/h-270090/palms-place-hotel-and-spa-at-the-palms-las-vegas-las+vegas?totalHotels=225&pageNbr=5&cl=3&rid=3944", "address": "Ubicaci\u00f3n: 4381 West Flamingo Road", "date": "2016-08-03 18:29:07", "longitud": "-115.195341000000000"},
{"latitud": "36.108130000000000", "city": "Hoteles en Las Vegas", "name": "Eastside Cannery Casino & Hotel", "price": ["792"], "source": "despegar", "link": "http://www.despegar.com.mx/hoteles/h-482091/eastside-cannery-casino-y-hotel-las+vegas?totalHotels=225&pageNbr=5&cl=1&rid=3944", "address": "Ubicaci\u00f3n: 5255 Boulder Hwy", "date": "2016-08-03 18:29:07", "longitud": "-115.058840000000000"},
{"latitud": "36.057051000000000", "city": "Hoteles en Las Vegas", "name": "Holiday Inn Express Hotel & Suites Henderson", "price": ["1", "797"], "source": "despegar", "link": "http://www.despegar.com.mx/hoteles/h-493965/holiday-inn-express-hotel-y-suites-henderson-las+vegas?totalHotels=225&pageNbr=5&cl=9&rid=3944", "address": "Ubicaci\u00f3n: 441 Astaire Drive", "date": "2016-08-03 18:29:07", "longitud": "-115.039011000000000"},
{"latitud": "36.098160000000000", "city": "Hoteles en Las Vegas", "name": "Desert Rose Resort", "price": ["833"], "source": "despegar", "link": "http://www.despegar.com.mx/hoteles/h-482083/desert-rose-resort-las+vegas?totalHotels=225&pageNbr=5&cl=12&rid=3944", "address": "Ubicaci\u00f3n: 5051 Duke Ellington Way", "date": "2016-08-03 18:29:07", "longitud": "-115.166630000000000"},
{"latitud": "36.115583000000000", "city": "Hoteles en Las Vegas", "name": "Candlewood Suites Las Vegas", "price": ["1", "143"], "source": "despegar", "link": "http://www.despegar.com.mx/hoteles/h-269514/candlewood-suites-las-vegas-las+vegas?totalHotels=225&pageNbr=5&cl=10&rid=3944", "address": "Ubicaci\u00f3n: 4034 Paradise Rd", "date": "2016-08-03 18:29:07", "longitud": "-115.154390000000000"},
{"latitud": "36.059170000000000", "city": "Hoteles en Las Vegas", "name": "Tahiti Village Resort & Spa", "price": ["1", "288"], "source": "despegar", "link": "http://www.despegar.com.mx/hoteles/h-269188/tahiti-village-resort-y-spa-las+vegas?totalHotels=225&pageNbr=5&cl=2&rid=3944", "address": "Ubicaci\u00f3n: 7200 Las Vegas Blvd S", "date": "2016-08-03 18:29:07", "longitud": "-115.172219999999980"},
{"latitud": "36.011176180000000", "city": "Hoteles en Las Vegas", "name": "South Point Hotel, Casino, and Spa", "price": ["1", "065"], "source": "despegar", "link": "http://www.despegar.com.mx/hoteles/h-428728/south-point-hotel,-casino,-and-spa-las+vegas?totalHotels=225&pageNbr=5&cl=5&rid=3944", "address": "Ubicaci\u00f3n: 9777 LAS VEGAS BLVD SOUTH", "date": "2016-08-03 18:29:07", "longitud": "-115.174201700000030"},